% (lat/lon/height=WGS84/ellipsoidal,Q=1:fix,2:float,3:sbas,4:dgps,5:single,6:ppp,ns=# of satellites)
%  GPST                  latitude(deg) longitude(deg)  height(m)   Q  ns   sdn(m)   sde(m)   sdu(m)  sdne(m)  sdeu(m)  sdun(m) age(s)  ratio    vn(m/s)    ve(m/s)    vu(m/s)      sdvn     sdve     sdvu    sdvne    sdveu    sdvun
2021/09/23 14:05:20.000   13.727589673  100.775906396   -14.4195   6   4  27.0268  11.3067  31.5614 -11.3111   6.7032  24.3384   0.00    0.0    0.89055   -0.62872   -0.28658  19.80118 15.07679 20.79392 -11.30734  9.48485  8.02875
2021/09/23 14:05:49.000   13.727603917  100.775914572   -11.7250   6   5  10.8282   4.4471  14.9899  -4.9123  -1.1604  10.8677   0.00    0.0    0.11906    0.10261    0.32591   2.52364  1.31437  2.76313 -1.05567 -0.47701  2.16325
2021/09/23 14:05:50.000   13.727550696  100.775941719   -13.9982   6   6   6.3142   3.2272  12.5028  -1.9889   2.7314   7.4113   0.00    0.0   -0.78728    0.58625   -0.10504   2.14482  1.19929  2.48920 -0.78962  0.02878  1.81322
2021/09/23 14:05:52.000   13.727539412  100.775955328   -13.5867   6   6   3.8179   3.2424  11.1747  -0.7605   2.9794   4.7307   0.00    0.0   -0.64278    0.66387    0.03452   1.63351  1.21969  2.17441 -0.66922  0.12694  1.16646
2021/09/23 14:05:53.000   13.727537431  100.775959405   -13.1641   6   5   3.0571   2.9573  10.3710  -0.3999   2.5525   3.8957   0.00    0.0   -0.36612    0.51773    0.16406   1.28481  1.09911  2.01264 -0.51376 -0.11458  0.86149
2021/09/23 14:05:54.000   13.727537437  100.775961113   -12.4234   6   7   2.6675   2.6768   9.3882   0.2392   2.6218   3.4254   0.00    0.0   -0.13871    0.31915    0.30228   1.02512  0.98728  1.79066 -0.34753  0.30531  0.63335
2021/09/23 14:05:55.000   13.727535225  100.775963445   -12.7581   6   8   2.1897   2.4144   8.5247   0.7937   2.5621   2.8215   0.00    0.0   -0.03127    0.19185    0.23804   0.86172  0.92214  1.60134 -0.13343  0.29984  0.39313
2021/09/23 14:05:56.000   13.727536579  100.775963703   -12.6026   6   7   2.0770   2.2845   8.0687   0.7112   2.3138   2.6593   0.00    0.0    0.08993    0.05051    0.22593   0.79320  0.89343  1.46500  0.13506  0.20540  0.21678
2021/09/23 14:05:57.000   13.727537654  100.775963844   -12.5471   6   7   1.9777   2.1875   7.7094   0.6747   2.1060   2.5104   0.00    0.0    0.15160   -0.04684    0.19646   0.75742  0.87348  1.34318  0.19934  0.11931 -0.12780
2021/09/23 14:05:58.000   13.727538237  100.775964116   -12.3735   6   7   1.8925   2.1127   7.4037   0.6618   1.9348   2.3732   0.00    0.0    0.16211   -0.10495    0.18792   0.73848  0.85838  1.23236  0.22274  0.04922 -0.20629
2021/09/23 14:05:59.000   13.727538381  100.775962591   -12.8563   6   8   1.8209   2.0171   7.0496   0.6580   1.6753   2.2508   0.00    0.0    0.15499   -0.17820    0.09112   0.72497  0.84141  1.12066  0.23548 -0.11712 -0.20049
2021/09/23 14:06:00.000   13.727538350  100.775962109   -13.1405   6   8   1.7606   1.9598   6.7672   0.6546   1.5137   2.1417   0.00    0.0    0.12663   -0.19115    0.03967   0.71298  0.83173  1.02819  0.23988 -0.09832 -0.17077
2021/09/23 14:06:01.000   13.727538218  100.775963398   -13.0216   6   7   1.7095   1.9452   6.5704   0.6486   1.4881   2.0447   0.00    0.0    0.07630   -0.13065    0.04714   0.70257  0.82903  0.95523  0.23954  0.09038 -0.13168
2021/09/23 14:06:02.000   13.727538129  100.775964635   -12.9036   6   7   1.6657   1.9279   6.3883   0.6485   1.4624   1.9655   0.00    0.0    0.03733   -0.07747    0.05275   0.69363  0.82371  0.89091  0.24531  0.13375 -0.05380
2021/09/23 14:06:03.000   13.727537816  100.775966322   -12.6838   6   7   1.6285   1.9259   6.2412   0.6462   1.4793   1.8970   0.00    0.0   -0.00191   -0.01823    0.06494   0.68801  0.82243  0.83586  0.24671  0.15984  0.09271
2021/09/23 14:06:04.000   13.727537364  100.775967746   -12.4533   6   7   1.5966   1.9176   6.1007   0.6469   1.4781   1.8407   0.00    0.0   -0.03126    0.01908    0.07658   0.68452  0.82039  0.78778  0.24944  0.16706  0.13267
2021/09/23 14:06:05.000   13.727537118  100.775968892   -12.4018   6   7   1.5693   1.9060   5.9669   0.6482   1.4637   1.7928   0.00    0.0   -0.04051    0.04135    0.06859   0.68281  0.81910  0.74609  0.25086  0.16583  0.15292
2021/09/23 14:06:06.000   13.727537175  100.775969431   -12.5043   6   7   1.5454   1.8762   5.8214   0.6537   1.3986   1.7539   0.00    0.0   -0.02789    0.03803    0.05008   0.68163  0.81528  0.70948  0.25476  0.15327  0.16446
2021/09/23 14:06:07.000   13.727536839  100.775969131   -12.9243   6   8   1.4818   1.8176   5.6429   0.7238   1.3423   1.6642   0.00    0.0   -0.01162   -0.00346    0.00782   0.67704  0.80641  0.67608  0.26850  0.13029  0.16705
2021/09/23 14:06:08.000   13.727536260  100.775970147   -13.1458   6   8   1.4420   1.8060   5.5038   0.7391   1.3388   1.5841   0.00    0.0   -0.02105    0.01885   -0.00889   0.67765  0.81206  0.65009  0.26107  0.13612  0.15871
2021/09/23 14:06:09.000   13.727536317  100.775971207   -13.0838   6   7   1.4453   1.8199   5.4154   0.7022   1.3258   1.5635   0.00    0.0   -0.01649    0.03910   -0.00628   0.68077  0.81797  0.62907  0.25034  0.13816  0.15477
2021/09/23 14:06:10.000   13.727536514  100.775971914   -13.1240   6   7   1.4430   1.8239   5.3316   0.6776   1.3064   1.5420   0.00    0.0   -0.00427    0.04319   -0.01147   0.68047  0.81833  0.61119  0.25005  0.13595  0.14976
2021/09/23 14:06:11.000   13.727535856  100.775972480   -13.3118   6   8   1.4060   1.8125   5.2313   0.7012   1.3156   1.4730   0.00    0.0   -0.01876    0.04091   -0.02297   0.67646  0.81595  0.59576  0.25764  0.13535  0.13982
2021/09/23 14:06:12.000   13.727535633  100.775972694   -13.3455   6   8   1.3801   1.8016   5.1413   0.7130   1.3113   1.4189   0.00    0.0   -0.01440    0.02248   -0.02183   0.67582  0.81500  0.58302  0.25879  0.13168  0.13406
2021/09/23 14:06:13.000   13.727535927  100.775972457   -13.3178   6   7   1.3866   1.7988   5.0762   0.6872   1.2737   1.4138   0.00    0.0    0.00332   -0.00438   -0.01848   0.67909  0.81623  0.57281  0.25212  0.12423  0.13482
2021/09/23 14:06:14.000   13.727536257  100.775972325   -13.3197   6   7   1.3871   1.7938   5.0159   0.6700   1.2395   1.4050   0.00    0.0    0.01701   -0.01943   -0.01759   0.67972  0.81691  0.56441  0.24981  0.11924  0.13376
2021/09/23 14:06:15.000   13.727536036  100.775972435   -13.5252   6   8   1.3578   1.7799   4.9442   0.6918   1.2366   1.3549   0.00    0.0    0.01140   -0.01960   -0.02900   0.67637  0.81607  0.55727  0.25522  0.11958  0.12758
2021/09/23 14:06:16.000   13.727535981  100.775972330   -13.7381   6   8   1.3377   1.7692   4.8802   0.7024   1.2284   1.3153   0.00    0.0    0.01196   -0.02500   -0.04023   0.67598  0.81624  0.55154  0.25559  0.11888  0.12459
2021/09/23 14:06:17.000   13.727535902  100.775972330   -13.8937   6   8   1.3231   1.7604   4.8229   0.7070   1.2175   1.2833   0.00    0.0    0.00882   -0.02462   -0.04602   0.67616  0.81652  0.54695  0.25507  0.11791  0.12327
2021/09/23 14:06:18.000   13.727535656  100.775972278   -14.0448   6   8   1.3120   1.7530   4.7716   0.7084   1.2054   1.2571   0.00    0.0   -0.00054   -0.02441   -0.05025   0.67614  0.81662  0.54326  0.25497  0.11699  0.12270
2021/09/23 14:06:19.000   13.727535614  100.775972301   -14.1827   6   8   1.3030   1.7465   4.7256   0.7083   1.1931   1.2353   0.00    0.0   -0.00151   -0.01996   -0.05411   0.67590  0.81654  0.54028  0.25534  0.11622  0.12237
2021/09/23 14:06:20.000   13.727535566  100.775972348   -14.3359   6   8   1.2953   1.7406   4.6845   0.7074   1.1810   1.2167   0.00    0.0   -0.00221   -0.01476   -0.05864   0.67560  0.81639  0.53784  0.25585  0.11559  0.12206
2021/09/23 14:06:21.000   13.727535665  100.775972511   -14.5015   6   8   1.2885   1.7352   4.6478   0.7061   1.1695   1.2006   0.00    0.0    0.00361   -0.00621   -0.06305   0.67538  0.81625  0.53580  0.25623  0.11505  0.12171
2021/09/23 14:06:22.000   13.727535592  100.775972543   -14.7266   6   8   1.2824   1.7301   4.6148   0.7047   1.1588   1.1863   0.00    0.0    0.00200   -0.00225   -0.07102   0.67527  0.81616  0.53405  0.25640  0.11455  0.12132
2021/09/23 14:06:23.000   13.727535395  100.775972484   -14.8998   6   7   1.2831   1.7303   4.5966   0.7148   1.1307   1.1560   0.00    0.0   -0.00667   -0.00193   -0.07534   0.67735  0.81713  0.53300  0.26060  0.10986  0.11572
2021/09/23 14:06:24.000   13.727535248  100.775972283   -15.0128   6   7   1.2808   1.7285   4.5798   0.7191   1.1086   1.1331   0.00    0.0   -0.01177   -0.00785   -0.07469   0.67768  0.81736  0.53192  0.26134  0.10756  0.11357
2021/09/23 14:06:25.000   13.727535015  100.775972918   -15.2511   6   7   1.2712   1.7800   4.6232   0.6931   0.9312   1.1516   0.00    0.0   -0.01838    0.02405   -0.08935   0.67575  0.83827  0.53901  0.25078 -0.07780  0.12536
2021/09/23 14:06:26.000   13.727534855  100.775973393   -15.4966   6   6   1.2808   1.8096   4.6712   0.6634   0.7584   1.1807   0.00    0.0   -0.01943    0.04250   -0.10456   0.67867  0.84494  0.54509  0.24570 -0.12381  0.13081
2021/09/23 14:06:27.000   13.727534930  100.775973354   -15.6225   6   6   1.3429   1.8305   4.7148   0.6047   0.5704   1.2225   0.00    0.0   -0.00708    0.03365   -0.10732   0.70229  0.84866  0.54977  0.22273 -0.14103  0.14511
2021/09/23 14:06:28.000   13.727534842  100.775973105   -15.6347   6   6   1.3765   1.8860   4.8403   0.5999  -0.4717   1.2197   0.00    0.0   -0.00676    0.01598   -0.09882   0.70926  0.86364  0.56067  0.23399 -0.18487  0.13455
2021/09/23 14:06:29.000   13.727534808  100.775972825   -15.6378   6   6   1.3879   1.9173   4.9600   0.5976  -0.7969   1.2185   0.00    0.0   -0.00498    0.00110   -0.08970   0.70983  0.86917  0.56961  0.23799 -0.19969  0.12634
2021/09/23 14:06:30.000   13.727534790  100.775972364   -15.6051   6   6   1.3890   1.9322   5.0676   0.5948  -0.9583   1.2208   0.00    0.0   -0.00358   -0.01657   -0.07769   0.71082  0.87131  0.57636  0.23715 -0.19954  0.12160
2021/09/23 14:06:31.000   13.727534891  100.775971958   -15.5481   6   6   1.3867   1.9376   5.1614   0.5914  -1.0481   1.2266   0.00    0.0    0.00173   -0.02759   -0.06441   0.71339  0.87298  0.58111  0.23470 -0.19177  0.11989
2021/09/23 14:06:32.000   13.727534951  100.775971825   -15.4784   6   6   1.3844   1.9386   5.2569   0.5868  -1.1054   1.2399   0.00    0.0    0.00290   -0.02520   -0.05114   0.71656  0.87503  0.58511  0.23269 -0.18215  0.12078
2021/09/23 14:06:33.000   13.727535068  100.775971759   -15.3333   6   6   1.3826   1.9372   5.3384   0.5828  -1.1379   1.2539   0.00    0.0    0.00454   -0.01924   -0.03265   0.71924  0.87712  0.58759  0.23206 -0.17213  0.12237
2021/09/23 14:06:34.000   13.727535195  100.775971409   -15.1848   6   6   1.3812   1.9350   5.4067   0.5796  -1.1564   1.2676   0.00    0.0    0.00613   -0.02320   -0.01461   0.72097  0.87891  0.58886  0.23250 -0.16360  0.12403
2021/09/23 14:06:35.000   13.727535364  100.775971251   -15.0241   6   6   1.3793   1.9324   5.4557   0.5766  -1.1692   1.2760   0.00    0.0    0.00836   -0.01869    0.00274   0.72175  0.88016  0.58884  0.23323 -0.15778  0.12455
2021/09/23 14:06:36.000   13.727535624  100.775971321   -14.8354   6   6   1.3765   1.8913   5.3773   0.5544  -0.9776   1.3090   0.00    0.0    0.01275   -0.00665    0.02079   0.72116  0.87410  0.58036  0.22547 -0.11492  0.13812
2021/09/23 14:06:37.000   13.727535749  100.775971670   -14.6546   6   6   1.3748   1.8697   5.3133   0.5464  -0.8393   1.3246   0.00    0.0    0.00998    0.01241    0.03642   0.72117  0.87323  0.57409  0.22473 -0.09380  0.14171
2021/09/23 14:06:38.000   13.727535807  100.775972163   -14.5829   6   6   1.3728   1.8362   5.1999   0.5333  -0.5761   1.3417   0.00    0.0    0.00747    0.03102    0.04088   0.72056  0.86841  0.56382  0.21839 -0.02466  0.14944
2021/09/23 14:06:39.000   13.727535886  100.775972414   -14.4599   6   7   1.3711   1.8181   5.1008   0.5291  -0.3194   1.3450   0.00    0.0    0.00568    0.03561    0.04920   0.72040  0.86685  0.55662  0.21603  0.03868  0.14969
2021/09/23 14:06:40.000   13.727535949  100.775972119   -14.2636   6   6   1.3715   1.8621   5.1504   0.5595  -0.7012   1.3053   0.00    0.0    0.00247    0.01782    0.06403   0.72195  0.87749  0.56163  0.22975 -0.11908  0.12809
2021/09/23 14:06:41.000   13.727536199  100.775972074   -14.1409   6   6   1.3688   1.8560   5.1175   0.5524  -0.6977   1.2990   0.00    0.0    0.00876    0.01106    0.07125   0.72115  0.87305  0.56081  0.22223 -0.12010  0.12773
2021/09/23 14:06:42.000   13.727536250  100.775971825   -13.9713   6   6   1.3664   1.8510   5.0887   0.5464  -0.6988   1.2930   0.00    0.0    0.00461   -0.00185    0.08184   0.72081  0.87049  0.56053  0.21814 -0.11851  0.12837
2021/09/23 14:06:43.000   13.727536130  100.775972015   -13.9693   6   6   1.3257   1.8193   5.0028   0.5721  -0.4929   1.2612   0.00    0.0   -0.00197    0.00369    0.07680   0.71080  0.86266  0.55563  0.22071 -0.07271  0.13034
2021/09/23 14:06:44.000   13.727536170  100.775972202   -14.0397   6   7   1.3051   1.8016   4.9284   0.5798  -0.2837   1.2441   0.00    0.0    0.00127    0.00752    0.06555   0.70908  0.86086  0.55253  0.21966 -0.03457  0.13358
2021/09/23 14:06:45.000   13.727536186  100.775971790   -13.9253   6   7   1.3332   1.8201   4.9257   0.5632  -0.4715   1.2463   0.00    0.0   -0.00035   -0.01148    0.07133   0.71929  0.86774  0.55537  0.21751 -0.08652  0.13281
2021/09/23 14:06:46.000   13.727536463  100.775972077   -13.9466   6   7   1.3464   1.8021   4.8693   0.5348  -0.3057   1.2652   0.00    0.0    0.01208   -0.00030    0.06351   0.71918  0.86111  0.55284  0.20581 -0.04290  0.14407
2021/09/23 14:06:47.000   13.727536469  100.775972128   -13.9564   6   8   1.3150   1.7847   4.8192   0.5720   0.1365   1.2287   0.00    0.0    0.00963    0.00092    0.05756   0.70857  0.85540  0.55150  0.21886  0.04115  0.13764
2021/09/23 14:06:48.000   13.727536289  100.775971981   -13.8834   6   8   1.3157   1.7954   4.8233   0.6430  -0.3210   1.1442   0.00    0.0   -0.00393   -0.00668    0.05922   0.71256  0.85741  0.55481  0.25271 -0.06162  0.10261
2021/09/23 14:06:49.000   13.727536024  100.775971736   -13.7929   6   8   1.3162   1.7968   4.8338   0.6889  -0.4496   1.0720   0.00    0.0   -0.01642   -0.01530    0.06229   0.71179  0.85315  0.55796  0.27122 -0.07844  0.07267
2021/09/23 14:06:50.000   13.727535937  100.775971227   -13.7100   6   7   1.3230   1.8091   4.8768   0.6884  -0.6370   1.0600   0.00    0.0   -0.01815   -0.03142    0.06442   0.70969  0.85110  0.56247  0.27710 -0.09956  0.06740
2021/09/23 14:06:51.000   13.727535655  100.775971221   -13.6838   6   7   1.3121   1.7885   4.8735   0.6609  -0.5983   1.1038   0.00    0.0   -0.02848   -0.02535    0.06163   0.70213  0.84095  0.56275  0.27373 -0.06432  0.09393
2021/09/23 14:06:52.000   13.727535570  100.775971119   -13.5749   6   7   1.3047   1.7691   4.8686   0.6552  -0.5400   1.1281   0.00    0.0   -0.02636   -0.02301    0.06570   0.70009  0.83502  0.56237  0.28038  0.03605  0.10078
2021/09/23 14:06:53.000   13.727535538  100.775971262   -13.4437   6   7   1.2997   1.7528   4.8611   0.6606  -0.4642   1.1390   0.00    0.0   -0.02160   -0.01167    0.07099   0.70030  0.83252  0.56134  0.28712  0.07557  0.09980
2021/09/23 14:06:54.000   13.727535642  100.775972130   -13.5415   6   9   1.2563   1.6996   4.7553   0.6371   0.4664   1.1899   0.00    0.0   -0.00426    0.02212    0.05479   0.68710  0.82377  0.55198  0.27292  0.14014  0.13341
2021/09/23 14:06:55.000   13.727535644  100.775972733   -13.6139   6   9   1.2387   1.6784   4.6824   0.6429   0.6626   1.1959   0.00    0.0    0.00376    0.03889    0.04188   0.68615  0.82393  0.54589  0.27288  0.15252  0.13638
2021/09/23 14:06:56.000   13.727536058  100.775972931   -13.5885   6   8   1.2486   1.6744   4.6351   0.6329   0.7206   1.2112   0.00    0.0    0.02572    0.03621    0.03733   0.68914  0.82549  0.54173  0.26752  0.14784  0.13736
2021/09/23 14:06:57.000   13.727535994  100.775972966   -13.6685   6   9   1.2349   1.6680   4.5854   0.6508   0.7709   1.1826   0.00    0.0    0.02250    0.02740    0.02482   0.68406  0.82402  0.53786  0.26850  0.14247  0.12829
2021/09/23 14:06:58.000   13.727536083  100.775972809   -13.6749   6   9   1.2255   1.6642   4.5434   0.6589   0.7941   1.1559   0.00    0.0    0.02420    0.01301    0.01909   0.68076  0.82211  0.53461  0.26449  0.13490  0.12310
2021/09/23 14:06:59.000   13.727536136  100.775972260   -13.6466   6   8   1.2345   1.6655   4.5146   0.6425   0.7841   1.1556   0.00    0.0    0.02160   -0.01273    0.01643   0.68169  0.82113  0.53207  0.25455  0.12474  0.12623
2021/09/23 14:07:00.000   13.727536213  100.775972035   -13.6805   6   8   1.2373   1.6648   4.4883   0.6315   0.7754   1.1515   0.00    0.0    0.01954   -0.01935    0.00872   0.68074  0.81967  0.52969  0.25021  0.11793  0.12804
2021/09/23 14:07:01.000   13.727536405  100.775972007   -13.7260   6   8   1.2368   1.6632   4.4639   0.6244   0.7697   1.1454   0.00    0.0    0.02179   -0.01621    0.00061   0.68000  0.81855  0.52742  0.24845  0.11408  0.12903
2021/09/23 14:07:02.000   13.727536521  100.775972092   -13.7280   6   8   1.2348   1.6612   4.4408   0.6201   0.7676   1.1385   0.00    0.0    0.01809   -0.00882   -0.00314   0.67991  0.81800  0.52524  0.24762  0.11230  0.12937
2021/09/23 14:07:03.000   13.727536530  100.775971817   -13.7557   6   8   1.2325   1.6593   4.4187   0.6176   0.7687   1.1313   0.00    0.0    0.01076   -0.01586   -0.00889   0.68019  0.81788  0.52316  0.24702  0.11167  0.12912
2021/09/23 14:07:04.000   13.727536603  100.775971339   -13.7532   6   8   1.2302   1.6575   4.3975   0.6164   0.7720   1.1241   0.00    0.0    0.00758   -0.02861   -0.01180   0.68051  0.81797  0.52119  0.24646  0.11146  0.12834
2021/09/23 14:07:05.000   13.727536823  100.775971129   -13.7321   6   8   1.2280   1.6559   4.3770   0.6159   0.7768   1.1172   0.00    0.0    0.01038   -0.02795   -0.01309   0.68068  0.81808  0.51932  0.24593  0.11123  0.12717
2021/09/23 14:07:06.000   13.727537013  100.775971253   -13.7228   6   8   1.2259   1.6544   4.3573   0.6160   0.7822   1.1105   0.00    0.0    0.01026   -0.01372   -0.01504   0.68068  0.81814  0.51758  0.24547  0.11077  0.12575
2021/09/23 14:07:07.000   13.727537255  100.775971173   -13.6130   6   8   1.2240   1.6530   4.3383   0.6163   0.7877   1.1042   0.00    0.0    0.01207   -0.01083   -0.00841   0.68060  0.81812  0.51597  0.24507  0.11003  0.12426
2021/09/23 14:07:08.000   13.727537521  100.775971181   -13.5178   6   8   1.2222   1.6516   4.3199   0.6166   0.7930   1.0982   0.00    0.0    0.01396   -0.00490   -0.00354   0.68050  0.81804  0.51451  0.24476  0.10909  0.12284
2021/09/23 14:07:09.000   13.727537772  100.775971292   -13.4204   6   8   1.2206   1.6502   4.3023   0.6170   0.7977   1.0925   0.00    0.0    0.01427    0.00340    0.00134   0.68042  0.81795  0.51320  0.24451  0.10807  0.12162
2021/09/23 14:07:10.000   13.727537783  100.775971820   -13.3683   6   9   1.2042   1.6440   4.2782   0.6363   0.8211   1.0651   0.00    0.0    0.00541    0.02548    0.00253   0.67730  0.81664  0.51171  0.25018  0.11077  0.11572
2021/09/23 14:07:11.000   13.727537803  100.775972235   -13.2962   6   9   1.1959   1.6406   4.2562   0.6450   0.8358   1.0463   0.00    0.0   -0.00052    0.03681    0.00540   0.67695  0.81641  0.51048  0.25076  0.11103  0.11361
2021/09/23 14:07:12.000   13.727537939  100.775972520   -13.1705   6   9   1.1916   1.6385   4.2360   0.6486   0.8449   1.0334   0.00    0.0   -0.00015    0.03857    0.01251   0.67692  0.81637  0.50947  0.25067  0.11027  0.11339
2021/09/23 14:07:13.000   13.727538183  100.775972817   -13.0820   6   9   1.1893   1.6370   4.2174   0.6497   0.8505   1.0243   0.00    0.0    0.00573    0.03924    0.01608   0.67663  0.81626  0.50864  0.25107  0.10929  0.11389
2021/09/23 14:07:14.000   13.727538286  100.775973135   -12.9560   6   9   1.1878   1.6358   4.2004   0.6499   0.8539   1.0177   0.00    0.0    0.00331    0.03903    0.02273   0.67617  0.81607  0.50797  0.25185  0.10848  0.11448
2021/09/23 14:07:15.000   13.727538487  100.775973457   -12.8688   6   9   1.1867   1.6347   4.1848   0.6497   0.8560   1.0125   0.00    0.0    0.00685    0.03801    0.02541   0.67576  0.81588  0.50743  0.25261  0.10796  0.11491
2021/09/23 14:07:16.000   13.727538851  100.775973755   -12.8028   6   9   1.1858   1.6337   4.1705   0.6494   0.8575   1.0082   0.00    0.0    0.01721    0.03516    0.02583   0.67550  0.81572  0.50701  0.25312  0.10774  0.11515
2021/09/23 14:07:17.000   13.727539396  100.775973860   -12.6907   6   9   1.1848   1.6327   4.1574   0.6491   0.8587   1.0042   0.00    0.0    0.03202    0.02424    0.02998   0.67539  0.81563  0.50667  0.25335  0.10772  0.11525
2021/09/23 14:07:18.000   13.727539801  100.775972931   -12.6209   6  10   1.1826   1.6178   4.1430   0.6574   0.8423   1.0043   0.00    0.0    0.03846   -0.02332    0.02970   0.67475  0.81217  0.50623  0.25759  0.10303  0.11697
2021/09/23 14:07:19.000   13.727540042  100.775972343   -12.5892   6  10   1.1810   1.6087   4.1300   0.6618   0.8320   1.0028   0.00    0.0    0.03401   -0.04517    0.02615   0.67429  0.81007  0.50590  0.26028  0.10089  0.11762
2021/09/23 14:07:20.000   13.727540197  100.775971779   -12.5602   6  10   1.1792   1.6015   4.1182   0.6656   0.8255   1.0005   0.00    0.0    0.02506   -0.05846    0.02251   0.67356  0.80726  0.50564  0.26417  0.09961  0.11800
2021/09/23 14:07:21.000   13.727540232  100.775971503   -12.5314   6  10   1.1774   1.5944   4.1075   0.6697   0.8210   0.9980   0.00    0.0    0.01131   -0.05567    0.01914   0.67277  0.80383  0.50544  0.26861  0.09835  0.11841
2021/09/23 14:07:22.000   13.727540383  100.775971488   -12.5004   6  10   1.1755   1.5874   4.0978   0.6739   0.8175   0.9955   0.00    0.0    0.00556   -0.04156    0.01609   0.67215  0.80054  0.50526  0.27238  0.09686  0.11890
2021/09/23 14:07:23.000   13.727540256  100.775971612   -12.5400   6  10   1.1738   1.5807   4.0888   0.6777   0.8144   0.9933   0.00    0.0   -0.00978   -0.02336    0.00725   0.67180  0.79797  0.50511  0.27482  0.09520  0.11937
2021/09/23 14:07:24.000   13.727540295  100.775971679   -12.5594   6  10   1.1723   1.5747   4.0806   0.6807   0.8114   0.9913   0.00    0.0   -0.01295   -0.01178    0.00080   0.67167  0.79631  0.50495  0.27599  0.09357  0.11972
2021/09/23 14:07:25.000   13.727540202  100.775972054   -12.5844   6  10   1.1710   1.5696   4.0730   0.6828   0.8084   0.9895   0.00    0.0   -0.02050    0.00867   -0.00547   0.67164  0.79545  0.50480  0.27630  0.09220  0.11988
2021/09/23 14:07:26.000   13.727540228  100.775971985   -12.5657   6  10   1.1699   1.5655   4.0659   0.6842   0.8055   0.9879   0.00    0.0   -0.01930    0.00658   -0.00736   0.67164  0.79511  0.50464  0.27623  0.09125  0.11985
2021/09/23 14:07:27.000   13.727540306  100.775971928   -12.5389   6  10   1.1690   1.5624   4.0593   0.6849   0.8027   0.9864   0.00    0.0   -0.01501    0.00460   -0.00825   0.67163  0.79502  0.50447  0.27609  0.09078  0.11965
2021/09/23 14:07:28.000   13.727540147  100.775972055   -12.5105   6  10   1.1682   1.5599   4.0531   0.6853   0.8001   0.9850   0.00    0.0   -0.02204    0.00928   -0.00872   0.67159  0.79501  0.50429  0.27603  0.09076  0.11934
2021/09/23 14:07:29.000   13.727540023  100.775972079   -12.5191   6  10   1.1674   1.5580   4.0473   0.6854   0.7978   0.9836   0.00    0.0   -0.02376    0.00846   -0.01231   0.67155  0.79497  0.50411  0.27607  0.09109  0.11900
2021/09/23 14:07:30.000   13.727539809  100.775972231   -12.4991   6  10   1.1667   1.5564   4.0417   0.6855   0.7957   0.9824   0.00    0.0   -0.02880    0.01202   -0.01296   0.67152  0.79490  0.50391  0.27614  0.09165  0.11868
2021/09/23 14:07:31.000   13.727539703  100.775972691   -12.4628   6  10   1.1660   1.5550   4.0365   0.6854   0.7939   0.9812   0.00    0.0   -0.02729    0.02579   -0.01186   0.67150  0.79480  0.50371  0.27620  0.09231  0.11841
2021/09/23 14:07:32.000   13.727539508  100.775972953   -12.4528   6  10   1.1653   1.5538   4.0314   0.6854   0.7922   0.9800   0.00    0.0   -0.02808    0.02789   -0.01302   0.67149  0.79471  0.50351  0.27623  0.09296  0.11823
2021/09/23 14:07:33.000   13.727539551  100.775973394   -12.3347   6  10   1.1646   1.5527   4.0266   0.6853   0.7907   0.9790   0.00    0.0   -0.01902    0.03401   -0.00420   0.67149  0.79463  0.50331  0.27622  0.09353  0.11812
2021/09/23 14:07:34.000   13.727539919  100.775973880   -12.2126   6  10   1.1640   1.5516   4.0219   0.6853   0.7893   0.9780   0.00    0.0    0.00310    0.03900    0.00434   0.67149  0.79458  0.50312  0.27618  0.09398  0.11807
2021/09/23 14:07:35.000   13.727540241  100.775973926   -12.1393   6  10   1.1634   1.5506   4.0174   0.6852   0.7879   0.9770   0.00    0.0    0.01891    0.02533    0.00782   0.67150  0.79455  0.50293  0.27613  0.09430  0.11807
2021/09/23 14:07:36.000   13.727540492  100.775974054   -12.0724   6  10   1.1627   1.5496   4.0131   0.6851   0.7865   0.9761   0.00    0.0    0.02594    0.01756    0.01039   0.67150  0.79453  0.50275  0.27607  0.09449  0.11810
2021/09/23 14:07:37.000   13.727540731  100.775974090   -11.9580   6  10   1.1621   1.5486   4.0089   0.6850   0.7852   0.9753   0.00    0.0    0.02844    0.00766    0.01716   0.67150  0.79451  0.50258  0.27602  0.09460  0.11813
2021/09/23 14:07:38.000   13.727540780  100.775974019   -11.8655   6  10   1.1616   1.5476   4.0049   0.6850   0.7839   0.9744   0.00    0.0    0.02072   -0.00325    0.02159   0.67150  0.79450  0.50243  0.27598  0.09463  0.11815
2021/09/23 14:07:39.000   13.727540830  100.775973964   -11.7546   6  10   1.1610   1.5467   4.0010   0.6849   0.7827   0.9736   0.00    0.0    0.01363   -0.01062    0.02749   0.67150  0.79449  0.50228  0.27593  0.09461  0.11817
2021/09/23 14:07:40.000   13.727540736  100.775973910   -11.6639   6  10   1.1604   1.5458   3.9972   0.6848   0.7814   0.9727   0.00    0.0    0.00154   -0.01515    0.03125   0.67151  0.79447  0.50215  0.27588  0.09457  0.11817
2021/09/23 14:07:41.000   13.727540507  100.775974181   -11.6348   6  10   1.1599   1.5449   3.9935   0.6847   0.7803   0.9719   0.00    0.0   -0.01313   -0.00435    0.02902   0.67151  0.79446  0.50204  0.27584  0.09453  0.11816
2021/09/23 14:07:42.000   13.727540348  100.775974569   -11.5823   6  10   1.1593   1.5441   3.9899   0.6845   0.7792   0.9710   0.00    0.0   -0.02069    0.00857    0.02903   0.67151  0.79444  0.50193  0.27579  0.09449  0.11815
2021/09/23 14:07:43.000   13.727540121  100.775974785   -11.6062   6  10   1.1588   1.5432   3.9864   0.6844   0.7781   0.9701   0.00    0.0   -0.02636    0.01231    0.02204   0.67152  0.79443  0.50185  0.27574  0.09446  0.11813
2021/09/23 14:07:44.000   13.727539970  100.775974870   -11.6440   6  10   1.1583   1.5424   3.9830   0.6843   0.7772   0.9693   0.00    0.0   -0.02536    0.00943    0.01407   0.67152  0.79442  0.50177  0.27569  0.09444  0.11811
2021/09/23 14:07:45.000   13.727539898  100.775975131   -11.7313   6  10   1.1578   1.5416   3.9797   0.6841   0.7763   0.9684   0.00    0.0   -0.01941    0.01407    0.00206   0.67152  0.79440  0.50170  0.27564  0.09444  0.11810
2021/09/23 14:07:46.000   13.727539851  100.775975257   -11.7963   6  10   1.1573   1.5409   3.9764   0.6840   0.7754   0.9675   0.00    0.0   -0.01314    0.01175   -0.00694   0.67153  0.79439  0.50165  0.27560  0.09445  0.11808
2021/09/23 14:07:47.000   13.727539631  100.775975567   -11.8882   6  10   1.1568   1.5402   3.9733   0.6838   0.7747   0.9667   0.00    0.0   -0.01605    0.01763   -0.01774   0.67153  0.79438  0.50160  0.27555  0.09447  0.11807
2021/09/23 14:07:48.000   13.727539441  100.775975722   -11.9751   6  10   1.1563   1.5394   3.9702   0.6837   0.7740   0.9658   0.00    0.0   -0.01626    0.01528   -0.02730   0.67153  0.79436  0.50156  0.27550  0.09449  0.11807
2021/09/23 14:07:49.000   13.727539315  100.775975568   -12.0558   6  10   1.1559   1.5388   3.9671   0.6835   0.7734   0.9650   0.00    0.0   -0.01266    0.00053   -0.03537   0.67153  0.79435  0.50153  0.27546  0.09452  0.11806
2021/09/23 14:07:50.000   13.727539167  100.775975885   -12.1705   6  10   1.1554   1.5381   3.9642   0.6834   0.7728   0.9641   0.00    0.0   -0.01153    0.00834   -0.04602   0.67154  0.79434  0.50150  0.27541  0.09454  0.11806
2021/09/23 14:07:51.000   13.727538936  100.775976267   -12.3317   6  10   1.1550   1.5374   3.9613   0.6832   0.7723   0.9633   0.00    0.0   -0.01380    0.01750   -0.06012   0.67154  0.79433  0.50148  0.27536  0.09457  0.11807
2021/09/23 14:07:52.000   13.727538839  100.775976552   -12.4652   6  10   1.1545   1.5368   3.9584   0.6831   0.7719   0.9624   0.00    0.0   -0.00942    0.01975   -0.07049   0.67154  0.79432  0.50146  0.27532  0.09460  0.11807
2021/09/23 14:07:53.000   13.727538853  100.775976557   -12.5032   6  10   1.1541   1.5362   3.9556   0.6829   0.7714   0.9616   0.00    0.0   -0.00238    0.00885   -0.07087   0.67155  0.79430  0.50145  0.27527  0.09463  0.11807
2021/09/23 14:07:54.000   13.727538964  100.775976587   -12.5282   6  10   1.1537   1.5356   3.9528   0.6827   0.7711   0.9608   0.00    0.0    0.00667    0.00112   -0.06975   0.67155  0.79429  0.50144  0.27522  0.09466  0.11807
2021/09/23 14:07:55.000   13.727538855  100.775976670   -12.5666   6  10   1.1533   1.5350   3.9501   0.6826   0.7707   0.9599   0.00    0.0    0.00256   -0.00175   -0.06957   0.67155  0.79428  0.50142  0.27517  0.09469  0.11808
2021/09/23 14:07:56.000   13.727538713  100.775976660   -12.5482   6  10   1.1528   1.5344   3.9474   0.6824   0.7704   0.9591   0.00    0.0   -0.00342   -0.00781   -0.06369   0.67156  0.79427  0.50141  0.27513  0.09472  0.11808
2021/09/23 14:07:57.000   13.727538649  100.775976434   -12.5714   6  10   1.1524   1.5339   3.9448   0.6823   0.7701   0.9583   0.00    0.0   -0.00347   -0.02049   -0.06197   0.67156  0.79425  0.50140  0.27508  0.09475  0.11808
2021/09/23 14:07:58.000   13.727538624  100.775976338   -12.5914   6  10   1.1520   1.5333   3.9421   0.6821   0.7699   0.9575   0.00    0.0   -0.00225   -0.02432   -0.05978   0.67156  0.79424  0.50139  0.27503  0.09478  0.11809
2021/09/23 14:07:59.000   13.727538858  100.775976323   -12.6180   6  10   1.1517   1.5328   3.9396   0.6819   0.7696   0.9567   0.00    0.0    0.01034   -0.02331   -0.05810   0.67157  0.79423  0.50138  0.27499  0.09481  0.11809
2021/09/23 14:08:00.000   13.727538918  100.775976236   -12.6168   6  10   1.1513   1.5323   3.9370   0.6818   0.7694   0.9559   0.00    0.0    0.01055   -0.02434   -0.05380   0.67157  0.79422  0.50137  0.27494  0.09484  0.11810
2021/09/23 14:08:01.000   13.727538987  100.775976110   -12.6466   6  10   1.1509   1.5318   3.9345   0.6816   0.7692   0.9551   0.00    0.0    0.01112   -0.02553   -0.05247   0.67157  0.79420  0.50136  0.27489  0.09487  0.11810
2021/09/23 14:08:02.000   13.727539162  100.775976036   -12.6980   6  10   1.1505   1.5313   3.9320   0.6814   0.7690   0.9543   0.00    0.0    0.01619   -0.02360   -0.05315   0.67158  0.79419  0.50135  0.27485  0.09490  0.11810
2021/09/23 14:08:03.000   13.727539282  100.775976029   -12.6947   6  10   1.1502   1.5308   3.9295   0.6813   0.7688   0.9535   0.00    0.0    0.01553   -0.01899   -0.04836   0.67158  0.79418  0.50134  0.27480  0.09493  0.11811
2021/09/23 14:08:04.000   13.727539375  100.775975953   -12.6849   6  10   1.1498   1.5303   3.9271   0.6811   0.7687   0.9527   0.00    0.0    0.01324   -0.01758   -0.04307   0.67158  0.79417  0.50133  0.27475  0.09496  0.11811
2021/09/23 14:08:05.000   13.727539617  100.775975874   -12.6619   6  10   1.1495   1.5298   3.9246   0.6809   0.7685   0.9520   0.00    0.0    0.01780   -0.01656   -0.03681   0.67159  0.79416  0.50131  0.27470  0.09499  0.11811
2021/09/23 14:08:06.000   13.727539776  100.775975783   -12.6712   6  10   1.1491   1.5293   3.9222   0.6808   0.7684   0.9512   0.00    0.0    0.01737   -0.01542   -0.03399   0.67159  0.79414  0.50130  0.27466  0.09502  0.11812
2021/09/23 14:08:07.000   13.727539716  100.775975758   -12.6750   6  10   1.1488   1.5289   3.9199   0.6806   0.7682   0.9505   0.00    0.0    0.00610   -0.01117   -0.03075   0.67159  0.79413  0.50129  0.27461  0.09505  0.11812
2021/09/23 14:08:08.000   13.727539642  100.775975910   -12.5922   6  10   1.1484   1.5284   3.9176   0.6804   0.7681   0.9497   0.00    0.0   -0.00487   -0.00157   -0.01933   0.67160  0.79412  0.50128  0.27456  0.09508  0.11812
2021/09/23 14:08:09.000   13.727539496  100.775976053   -12.4678   6  10   1.1481   1.5280   3.9152   0.6803   0.7680   0.9490   0.00    0.0   -0.01645    0.00504   -0.00469   0.67160  0.79411  0.50127  0.27452  0.09511  0.11812
2021/09/23 14:08:10.000   13.727539366  100.775976052   -12.3571   6  10   1.1478   1.5275   3.9130   0.6801   0.7678   0.9483   0.00    0.0   -0.02261    0.00382    0.00765   0.67160  0.79409  0.50125  0.27447  0.09514  0.11813
2021/09/23 14:08:11.000   13.727539217  100.775976077   -12.2635   6  10   1.1475   1.5271   3.9107   0.6799   0.7677   0.9476   0.00    0.0   -0.02659    0.00352    0.01744   0.67161  0.79408  0.50124  0.27442  0.09516  0.11813
2021/09/23 14:08:12.000   13.727539195  100.775975996   -12.1742   6  10   1.1472   1.5267   3.9085   0.6798   0.7676   0.9469   0.00    0.0   -0.02186   -0.00153    0.02616   0.67161  0.79407  0.50123  0.27437  0.09519  0.11813
2021/09/23 14:08:13.000   13.727539175  100.775976165   -12.0929   6  10   1.1469   1.5263   3.9063   0.6796   0.7675   0.9463   0.00    0.0   -0.01770    0.00477    0.03335   0.67161  0.79406  0.50122  0.27433  0.09522  0.11814
2021/09/23 14:08:14.000   13.727539337  100.775976441   -12.0853   6  10   1.1466   1.5259   3.9042   0.6794   0.7674   0.9456   0.00    0.0   -0.00389    0.01422    0.03292   0.67162  0.79405  0.50121  0.27428  0.09525  0.11814
2021/09/23 14:08:15.000   13.727539514  100.775976447   -11.9979   6  10   1.1463   1.5255   3.9020   0.6793   0.7673   0.9449   0.00    0.0    0.00651    0.00955    0.04008   0.67162  0.79403  0.50120  0.27423  0.09528  0.11814
2021/09/23 14:08:16.000   13.727539803  100.775976519   -11.9711   6  10   1.1460   1.5251   3.8999   0.6791   0.7671   0.9443   0.00    0.0    0.02010    0.00882    0.04076   0.67162  0.79402  0.50119  0.27418  0.09531  0.11815
2021/09/23 14:08:17.000   13.727540011  100.775976666   -11.9833   6  10   1.1457   1.5247   3.8979   0.6789   0.7670   0.9437   0.00    0.0    0.02617    0.01184    0.03756   0.67163  0.79401  0.50117  0.27414  0.09534  0.11815
2021/09/23 14:08:18.000   13.727540149  100.775976857   -11.9561   6  10   1.1454   1.5243   3.8958   0.6787   0.7669   0.9431   0.00    0.0    0.02545    0.01569    0.03815   0.67163  0.79400  0.50116  0.27409  0.09537  0.11815
2021/09/23 14:08:19.000   13.727540414  100.775976706   -11.9688   6  10   1.1451   1.5239   3.8938   0.6786   0.7668   0.9425   0.00    0.0    0.03134    0.00454    0.03468   0.67163  0.79398  0.50115  0.27404  0.09540  0.11816
2021/09/23 14:08:20.000   13.727540478  100.775976616   -12.0419   6  10   1.1449   1.5235   3.8918   0.6784   0.7667   0.9419   0.00    0.0    0.02603   -0.00054    0.02553   0.67164  0.79397  0.50115  0.27400  0.09543  0.11816
2021/09/23 14:08:21.000   13.727540554  100.775976620   -12.1686   6  10   1.1446   1.5232   3.8899   0.6782   0.7666   0.9413   0.00    0.0    0.02236   -0.00011    0.01165   0.67164  0.79396  0.50114  0.27395  0.09546  0.11816
2021/09/23 14:08:22.000   13.727540723  100.775976736   -12.2835   6  10   1.1443   1.5228   3.8880   0.6781   0.7665   0.9407   0.00    0.0    0.02268    0.00444   -0.00032   0.67164  0.79395  0.50113  0.27390  0.09549  0.11817
2021/09/23 14:08:23.000   13.727540662  100.775976711   -12.4014   6  10   1.1441   1.5224   3.8861   0.6779   0.7664   0.9402   0.00    0.0    0.01184    0.00269   -0.01182   0.67165  0.79394  0.50112  0.27385  0.09551  0.11817
2021/09/23 14:08:24.000   13.727540668  100.775976580   -12.5341   6  10   1.1438   1.5221   3.8842   0.6777   0.7663   0.9396   0.00    0.0    0.00714   -0.00313   -0.02386   0.67165  0.79392  0.50111  0.27381  0.09554  0.11817
2021/09/23 14:08:25.000   13.727540753  100.775976412   -12.6159   6  10   1.1436   1.5217   3.8824   0.6775   0.7662   0.9391   0.00    0.0    0.00634   -0.00971   -0.03014   0.67165  0.79391  0.50110  0.27376  0.09557  0.11818
2021/09/23 14:08:26.000   13.727540784  100.775976377   -12.7065   6  10   1.1433   1.5214   3.8806   0.6774   0.7660   0.9386   0.00    0.0    0.00308   -0.00896   -0.03678   0.67166  0.79390  0.50109  0.27371  0.09560  0.11818
2021/09/23 14:08:27.000   13.727540754  100.775976572   -12.8227   6  10   1.1431   1.5211   3.8788   0.6772   0.7659   0.9380   0.00    0.0   -0.00222    0.00172   -0.04531   0.67166  0.79389  0.50108  0.27366  0.09563  0.11818
2021/09/23 14:08:28.000   13.727540606  100.775976532   -12.9503   6  10   1.1428   1.5207   3.8770   0.6770   0.7658   0.9375   0.00    0.0   -0.01057    0.00065   -0.05417   0.67166  0.79388  0.50107  0.27362  0.09566  0.11819
2021/09/23 14:08:29.000   13.727540503  100.775976799   -13.0456   6  10   1.1426   1.5204   3.8753   0.6769   0.7657   0.9370   0.00    0.0   -0.01539    0.01167   -0.05917   0.67167  0.79386  0.50106  0.27357  0.09569  0.11819
2021/09/23 14:08:30.000   13.727540495  100.775977048   -13.1510   6  10   1.1424   1.5201   3.8736   0.6767   0.7656   0.9365   0.00    0.0   -0.01339    0.01883   -0.06470   0.67167  0.79385  0.50105  0.27352  0.09572  0.11819
2021/09/23 14:08:31.000   13.727540344  100.775977318   -13.2424   6  10   1.1421   1.5197   3.8719   0.6765   0.7655   0.9361   0.00    0.0   -0.01824    0.02474   -0.06833   0.67167  0.79384  0.50104  0.27347  0.09575  0.11820
2021/09/23 14:08:32.000   13.727540356  100.775977236   -13.2634   6  10   1.1419   1.5194   3.8702   0.6763   0.7654   0.9356   0.00    0.0   -0.01393    0.01302   -0.06467   0.67168  0.79383  0.50104  0.27343  0.09578  0.11820
2021/09/23 14:08:33.000   13.727540391  100.775977130   -13.2444   6  10   1.1417   1.5191   3.8686   0.6762   0.7653   0.9351   0.00    0.0   -0.00994    0.00213   -0.05711   0.67168  0.79382  0.50103  0.27338  0.09580  0.11820
2021/09/23 14:08:34.000   13.727540408  100.775977091   -13.2451   6  10   1.1415   1.5188   3.8670   0.6760   0.7652   0.9346   0.00    0.0   -0.00736   -0.00331   -0.05178   0.67168  0.79380  0.50102  0.27333  0.09583  0.11821
2021/09/23 14:08:35.000   13.727540390  100.775976963   -13.2452   6  10   1.1412   1.5185   3.8654   0.6758   0.7651   0.9342   0.00    0.0   -0.00676   -0.01082   -0.04649   0.67169  0.79379  0.50101  0.27328  0.09586  0.11821
2021/09/23 14:08:36.000   13.727540408  100.775977129   -13.2367   6  10   1.1410   1.5182   3.8638   0.6757   0.7650   0.9337   0.00    0.0   -0.00550   -0.00425   -0.04068   0.67169  0.79378  0.50100  0.27324  0.09589  0.11821
2021/09/23 14:08:37.000   13.727540592  100.775976956   -13.1812   6  10   1.1408   1.5179   3.8623   0.6755   0.7649   0.9333   0.00    0.0    0.00327   -0.01347   -0.03058   0.67169  0.79377  0.50099  0.27319  0.09592  0.11821
2021/09/23 14:08:38.000   13.727540849  100.775976981   -13.2237   6  10   1.1406   1.5176   3.8607   0.6753   0.7648   0.9329   0.00    0.0    0.01437   -0.01111   -0.03066   0.67170  0.79375  0.50098  0.27314  0.09595  0.11822
2021/09/23 14:08:39.000   13.727540928  100.775977073   -13.2401   6  10   1.1404   1.5173   3.8592   0.6752   0.7647   0.9324   0.00    0.0    0.01297   -0.00564   -0.02808   0.67170  0.79374  0.50097  0.27309  0.09598  0.11822
2021/09/23 14:08:40.000   13.727540826  100.775977159   -13.2491   6  10   1.1402   1.5170   3.8577   0.6750   0.7646   0.9320   0.00    0.0    0.00275   -0.00106   -0.02478   0.67171  0.79373  0.50096  0.27305  0.09601  0.11822
2021/09/23 14:08:41.000   13.727540681  100.775977323   -13.2637   6  10   1.1400   1.5167   3.8562   0.6748   0.7645   0.9316   0.00    0.0   -0.00705    0.00579   -0.02212   0.67171  0.79372  0.50095  0.27300  0.09603  0.11823
2021/09/23 14:08:42.000   13.727540444  100.775977382   -13.2220   6  10   1.1398   1.5164   3.8548   0.6747   0.7645   0.9312   0.00    0.0   -0.01926    0.00613   -0.01411   0.67171  0.79371  0.50094  0.27295  0.09606  0.11823
