% (lat/lon/height=WGS84/ellipsoidal,Q=1:fix,2:float,3:sbas,4:dgps,5:single,6:ppp,ns=# of satellites)
%  GPST                  latitude(deg) longitude(deg)  height(m)   Q  ns   sdn(m)   sde(m)   sdu(m)  sdne(m)  sdeu(m)  sdun(m) age(s)  ratio    vn(m/s)    ve(m/s)    vu(m/s)      sdvn     sdve     sdvu    sdvne    sdveu    sdvun
2021/09/23 14:05:19.000   13.727533813  100.775972088   -14.0510   5   6   3.9174   7.1937  20.8052   4.3947  10.2026   5.7272   0.00    0.0    0.01418    0.04080    0.16223   0.20631  0.31270  0.71156  0.21449  0.35551  0.27376
2021/09/23 14:05:20.000   13.727532977  100.775970296   -14.7163   5   6   3.9179   7.1971  20.8183   4.3964  10.2108   5.7322   0.00    0.0    0.02347   -0.00105    0.05028   0.20631  0.31273  0.71160  0.21451  0.35557  0.27378
2021/09/23 14:05:21.000   13.727532313  100.775969623   -15.1834   5   6   3.9184   7.2004  20.8313   4.3982  10.2189   5.7372   0.00    0.0    0.01493    0.00555    0.00883   0.20632  0.31277  0.71165  0.21452  0.35564  0.27380
2021/09/23 14:05:22.000   13.727530762  100.775965987   -15.2310   5   6   3.9190   7.2038  20.8444   4.4000  10.2270   5.7421   0.00    0.0   -0.02877   -0.03158   -0.08301   0.20632  0.31280  0.71169  0.21454  0.35570  0.27382
2021/09/23 14:05:23.000   13.727541726  100.775960524   -15.3175   5   2  12.6349  27.5580  29.7863  17.9607   6.5099  -9.8621   1.00    0.0   -0.00448   -0.00673    0.06491  10.00000 10.00000 10.00000  0.00000 -0.00000  0.00000
2021/09/23 14:05:24.000   13.727539545  100.775958588   -13.8956   5   2  12.4488  27.5286  28.7567  17.9460   7.1307  -9.2755   1.00    0.0   -0.00448   -0.00673    0.06491  10.00000 10.00000 10.00000  0.00000 -0.00000  0.00000
2021/09/23 14:05:25.000   13.727546008  100.775963746   -17.8210   5   2  12.2285  27.4825  26.5122  17.8651   8.2493  -7.8990   1.00    0.0   -0.00448   -0.00673    0.06491  10.00000 10.00000 10.00000  0.00000  0.00000  0.00000
2021/09/23 14:05:26.000   13.727545749  100.775963247   -17.5176   5   2  11.9953  27.4316  23.6922  17.7654   9.3624  -5.9449   1.00    0.0   -0.00448   -0.00673    0.06491  10.00000 10.00000 10.00000  0.00000 -0.00000  0.00000
2021/09/23 14:05:27.000   13.727551110  100.775966669   -20.3456   5   2  11.7956  27.3881  20.9615  17.6777  10.2243  -3.4674   1.00    0.0   -0.00448   -0.00673    0.06491  10.00000 10.00000 10.00000  0.00000  0.00000  0.00000
2021/09/23 14:05:28.000   13.727551758  100.775967136   -20.7137   5   2  11.6425  27.3550  18.6211  17.6104  10.8333   2.3875   1.00    0.0   -0.00448   -0.00673    0.06491  10.00000 10.00000 10.00000  0.00000  0.00000 -0.00000
2021/09/23 14:05:29.000   13.727549662  100.775965544   -19.4818   5   2  11.5299  27.3310  16.7140  17.5613  11.2559   4.3124   1.00    0.0   -0.00448   -0.00673    0.06491  10.00000 10.00000 10.00000  0.00000  0.00000  0.00000
2021/09/23 14:05:30.000   13.727546732  100.775963567   -17.8843   5   2  11.4474  27.3135  15.1838  17.5256  11.5524   5.2859   1.00    0.0   -0.00448   -0.00673    0.06491  10.00000 10.00000 10.00000 -0.00000  0.00000  0.00000
2021/09/23 14:05:31.000   13.727546268  100.775963266   -17.6380   5   2  11.3862  27.3006  13.9551  17.4995  11.7653   5.8988   1.00    0.0   -0.00448   -0.00673    0.06491  10.00000 10.00000 10.00000  0.00000  0.00000  0.00000
2021/09/23 14:05:32.000   13.727546378  100.775963046   -17.5509   5   2  11.3401  27.2910  12.9609  17.4799  11.9221   6.3184   1.00    0.0   -0.00448   -0.00673    0.06491  10.00000 10.00000 10.00000  0.00000  0.00000  0.00000
2021/09/23 14:05:33.000   13.727546059  100.775962520   -17.2223   5   2  11.3045  27.2836  12.1480  17.4650  12.0404   6.6206   1.00    0.0   -0.00448   -0.00673    0.06491  10.00000 10.00000 10.00000  0.00000  0.00000  0.00000
2021/09/23 14:05:34.000   13.727544490  100.775961550   -16.4137   5   2  11.2767  27.2778  11.4761  17.4534  12.1318   6.8466   1.00    0.0   -0.00448   -0.00673    0.06491  10.00000 10.00000 10.00000  0.00000  0.00000  0.00000
2021/09/23 14:05:35.000   13.727543672  100.775961132   -16.0364   5   2  11.2544  27.2732  10.9146  17.4442  12.2037   7.0204   1.00    0.0   -0.00448   -0.00673    0.06491  10.00000 10.00000 10.00000  0.00000 -0.00000 -0.00000
2021/09/23 14:05:36.000   13.727543370  100.775960712   -15.7646   5   2  11.2364  27.2695  10.4406  17.4369  12.2614   7.1574   1.00    0.0   -0.00448   -0.00673    0.06491  10.00000 10.00000 10.00000  0.00000  0.00000 -0.00000
2021/09/23 14:05:37.000   13.727543881  100.775960958   -15.9927   5   2  11.2215  27.2665  10.0367  17.4308  12.3084   7.2675   1.00    0.0   -0.00448   -0.00673    0.06491  10.00000 10.00000 10.00000  0.00000 -0.00000 -0.00000
2021/09/23 14:05:38.000   13.727544346  100.775961000   -16.1096   5   2  11.2091  27.2639   9.6895  17.4259  12.3473   7.3575   1.00    0.0   -0.00448   -0.00673    0.06491  10.00000 10.00000 10.00000  0.00000  0.00000  0.00000
2021/09/23 14:05:39.000   13.727544443  100.775961030   -16.1446   5   2  11.1986  27.2618   9.3887  17.4217  12.3799   7.4321   1.00    0.0   -0.00448   -0.00673    0.06491  10.00000 10.00000 10.00000  0.00000  0.00000  0.00000
2021/09/23 14:05:40.000   13.727544577  100.775961010   -16.1621   5   2  11.1897  27.2600   9.1262  17.4181  12.4075   7.4947   1.00    0.0   -0.00448   -0.00673    0.06491  10.00000 10.00000 10.00000  0.00000  0.00000  0.00000
2021/09/23 14:05:41.000   13.727544602  100.775961010   -16.1670   5   2  11.1820  27.2584   8.8956  17.4151  12.4311   7.5479   1.00    0.0   -0.00448   -0.00673    0.06491  10.00000 10.00000 10.00000  0.00000  0.00000  0.00000
2021/09/23 14:05:42.000   13.727544795  100.775960860   -16.1328   5   2  11.1753  27.2570   8.6918  17.4125  12.4514   7.5935   1.00    0.0   -0.00448   -0.00673    0.06491  10.00000 10.00000 10.00000 -0.00000  0.00000  0.00000
2021/09/23 14:05:43.000   13.727545414  100.775960973   -16.3148   5   2  11.1695  27.2558   8.5107  17.4102  12.4692   7.6330   1.00    0.0   -0.00448   -0.00673    0.06491  10.00000 10.00000 10.00000  0.00000 -0.00000  0.00000
2021/09/23 14:05:44.000   13.727545625  100.775960916   -16.3299   5   2  11.1644  27.2548   8.3490  17.4082  12.4847   7.6674   1.00    0.0   -0.00448   -0.00673    0.06491  10.00000 10.00000 10.00000  0.00000 -0.00000  0.00000
2021/09/23 14:05:46.000   13.727545646  100.775960763   -16.2597   5   2  11.1597  27.2538   8.1996  17.4064  12.4989   7.6986   1.00    0.0   -0.00448   -0.00673    0.06491  10.00000 10.00000 10.00000  0.00000  0.00000  0.00000
2021/09/23 14:05:47.000   13.727545625  100.775960711   -16.2304   5   2  11.1555  27.2530   8.0656  17.4048  12.5115   7.7260   1.00    0.0   -0.00448   -0.00673    0.06491  10.00000 10.00000 10.00000  0.00000  0.00000  0.00000
2021/09/23 14:05:48.000   13.727545902  100.775960782   -16.3205   5   2  11.1518  27.2522   7.9450  17.4033  12.5226   7.7502   1.00    0.0   -0.00448   -0.00673    0.06491  10.00000 10.00000 10.00000  0.00000  0.00000  0.00000
2021/09/23 14:05:49.000   13.727555909  100.775991392   -13.8740   2   7   0.7450   1.3585   3.4016   0.7634   0.6043  -0.9938   1.00    0.0   -0.00448   -0.00673    0.06491  10.00000 10.00000 10.00000  0.00000  0.00000  0.00000
2021/09/23 14:05:50.000   13.727555909  100.775990967   -13.8747   2   7   0.5864   1.0124   2.7742   0.5293   0.2962  -0.7543   1.00    0.0   -0.00448   -0.00673    0.06491  10.00000 10.00000 10.00000  0.00000  0.00000  0.00000
2021/09/23 14:05:52.000   13.727555647  100.775990548   -13.6515   2   7   0.5057   0.8486   2.4179   0.4167  -0.0822  -0.6112   1.00    0.0   -0.00448   -0.00673    0.06491  10.00000 10.00000 10.00000  0.00000  0.00000 -0.00000
2021/09/23 14:05:53.000   13.727555669  100.775990117   -13.5743   2   7   0.4542   0.7481   2.1797   0.3474  -0.2220  -0.5142   1.00    0.0   -0.00448   -0.00673    0.06491  10.00000 10.00000 10.00000  0.00000 -0.00000  0.00000
2021/09/23 14:05:54.000   13.727555902  100.775990055   -13.5856   2   7   0.4172   0.6782   2.0052   0.2993  -0.2658  -0.4432   1.00    0.0   -0.00448   -0.00673    0.06491  10.00000 10.00000 10.00000  0.00000  0.00000  0.00000
2021/09/23 14:05:55.000   13.727555831  100.775989791   -13.5842   2   7   0.3889   0.6258   1.8696   0.2636  -0.2860  -0.3884   1.00    0.0   -0.00448   -0.00673    0.06491  10.00000 10.00000 10.00000  0.00000  0.00000  0.00000
2021/09/23 14:05:56.000   13.727555755  100.775989493   -13.5941   2   7   0.3662   0.5846   1.7599   0.2359  -0.2957  -0.3446   1.00    0.0   -0.00448   -0.00673    0.06491  10.00000 10.00000 10.00000  0.00000  0.00000  0.00000
2021/09/23 14:05:57.000   13.727555879  100.775989492   -13.6049   2   7   0.3474   0.5510   1.6686   0.2135  -0.2999  -0.3087   1.00    0.0   -0.00448   -0.00673    0.06491  10.00000 10.00000 10.00000  0.00000 -0.00000 -0.00000
2021/09/23 14:05:58.000   13.727555883  100.775989542   -13.5770   2   7   0.3315   0.5228   1.5908   0.1951  -0.3010  -0.2785   1.00    0.0   -0.00448   -0.00673    0.06491  10.00000 10.00000 10.00000  0.00000  0.00000  0.00000
2021/09/23 14:05:59.000   13.727556015  100.775989702   -13.6027   2   7   0.3178   0.4988   1.5234   0.1797  -0.3002  -0.2528   1.00    0.0   -0.00448   -0.00673    0.06491  10.00000 10.00000 10.00000  0.00000  0.00000 -0.00000
2021/09/23 14:06:00.000   13.727556020  100.775989665   -13.5731   2   7   0.3057   0.4780   1.4642   0.1665  -0.2982  -0.2306   1.00    0.0   -0.00448   -0.00673    0.06491  10.00000 10.00000 10.00000  0.00000 -0.00000 -0.00000
2021/09/23 14:06:01.000   13.727556114  100.775989649   -13.5562   2   7   0.2950   0.4597   1.4116   0.1550  -0.2955  -0.2111   1.00    0.0   -0.00448   -0.00673    0.06491  10.00000 10.00000 10.00000  0.00000  0.00000  0.00000
2021/09/23 14:06:02.000   13.727556202  100.775989620   -13.5195   2   7   0.2854   0.4434   1.3643   0.1451  -0.2924  -0.1939   1.00    0.0   -0.00448   -0.00673    0.06491  10.00000 10.00000 10.00000  0.00000  0.00000 -0.00000
2021/09/23 14:06:03.000   13.727556273  100.775989780   -13.5818   2   7   0.2768   0.4288   1.3216   0.1362  -0.2889  -0.1785   1.00    0.0   -0.00448   -0.00673    0.06491  10.00000 10.00000 10.00000  0.00000  0.00000  0.00000
2021/09/23 14:06:04.000   13.727556274  100.775989896   -13.5799   2   7   0.2689   0.4156   1.2827   0.1284  -0.2853  -0.1647   1.00    0.0   -0.00448   -0.00673    0.06491  10.00000 10.00000 10.00000  0.00000  0.00000  0.00000
2021/09/23 14:06:05.000   13.727556344  100.775989981   -13.5781   2   7   0.2617   0.4035   1.2470   0.1214  -0.2816  -0.1521   1.00    0.0   -0.00448   -0.00673    0.06491  10.00000 10.00000 10.00000  0.00000  0.00000 -0.00000
2021/09/23 14:06:06.000   13.727556458  100.775990105   -13.6224   2   7   0.2551   0.3925   1.2141   0.1151  -0.2779  -0.1406   1.00    0.0   -0.00448   -0.00673    0.06491  10.00000 10.00000 10.00000  0.00000  0.00000  0.00000
2021/09/23 14:06:07.000   13.727556591  100.775990183   -13.6481   2   7   0.2489   0.3824   1.1837   0.1093  -0.2742  -0.1301   1.00    0.0   -0.00448   -0.00673    0.06491  10.00000 10.00000 10.00000  0.00000  0.00000 -0.00000
2021/09/23 14:06:08.000   13.727556666  100.775990174   -13.6408   2   7   0.2432   0.3731   1.1554   0.1041  -0.2705  -0.1204   1.00    0.0   -0.00448   -0.00673    0.06491  10.00000 10.00000 10.00000  0.00000  0.00000 -0.00000
2021/09/23 14:06:09.000   13.727556744  100.775990190   -13.6316   2   7   0.2379   0.3644   1.1290   0.0993  -0.2669  -0.1114   1.00    0.0   -0.00448   -0.00673    0.06491  10.00000 10.00000 10.00000  0.00000  0.00000  0.00000
2021/09/23 14:06:10.000   13.727556818  100.775990246   -13.6398   2   7   0.2329   0.3563   1.1043   0.0949  -0.2634  -0.1029   1.00    0.0   -0.00448   -0.00673    0.06491  10.00000 10.00000 10.00000 -0.00000  0.00000  0.00000
2021/09/23 14:06:11.000   13.727556857  100.775990284   -13.6363   2   7   0.2283   0.3487   1.0811   0.0909  -0.2599  -0.0950   1.00    0.0   -0.00448   -0.00673    0.06491  10.00000 10.00000 10.00000  0.00000  0.00000  0.00000
2021/09/23 14:06:12.000   13.727556895  100.775990299   -13.6331   2   7   0.2239   0.3416   1.0593   0.0872  -0.2565  -0.0875   1.00    0.0   -0.00448   -0.00673    0.06491  10.00000 10.00000 10.00000  0.00000 -0.00000 -0.00000
2021/09/23 14:06:13.000   13.727556901  100.775990245   -13.6249   2   7   0.2198   0.3349   1.0387   0.0837  -0.2532  -0.0803   1.00    0.0   -0.00448   -0.00673    0.06491  10.00000 10.00000 10.00000  0.00000  0.00000 -0.00000
2021/09/23 14:06:14.000   13.727556954  100.775990199   -13.6444   2   7   0.2158   0.3286   1.0192   0.0805  -0.2500  -0.0735   1.00    0.0   -0.00448   -0.00673    0.06491  10.00000 10.00000 10.00000  0.00000  0.00000  0.00000
2021/09/23 14:06:15.000   13.727557033  100.775990195   -13.6693   2   7   0.2121   0.3227   1.0007   0.0774  -0.2469  -0.0668   1.00    0.0   -0.00448   -0.00673    0.06491  10.00000 10.00000 10.00000  0.00000  0.00000  0.00000
2021/09/23 14:06:16.000   13.727557076  100.775990217   -13.6938   2   7   0.2086   0.3171   0.9831   0.0746  -0.2439  -0.0604   1.00    0.0   -0.00448   -0.00673    0.06491  10.00000 10.00000 10.00000  0.00000  0.00000  0.00000
2021/09/23 14:06:17.000   13.727557133  100.775990199   -13.7269   2   7   0.2053   0.3117   0.9664   0.0720  -0.2409  -0.0541   1.00    0.0   -0.00448   -0.00673    0.06491  10.00000 10.00000 10.00000  0.00000  0.00000 -0.00000
2021/09/23 14:06:18.000   13.727557218  100.775990151   -13.7503   2   7   0.2021   0.3066   0.9505   0.0695  -0.2381  -0.0477   1.00    0.0   -0.00448   -0.00673    0.06491  10.00000 10.00000 10.00000 -0.00000  0.00000  0.00000
2021/09/23 14:06:19.000   13.727557248  100.775990198   -13.7789   2   7   0.1990   0.3018   0.9353   0.0672  -0.2353  -0.0413   1.00    0.0   -0.00448   -0.00673    0.06491  10.00000 10.00000 10.00000  0.00000  0.00000  0.00000
2021/09/23 14:06:20.000   13.727557268  100.775990154   -13.7881   2   7   0.1961   0.2972   0.9207   0.0650  -0.2325  -0.0345   1.00    0.0   -0.00448   -0.00673    0.06491  10.00000 10.00000 10.00000  0.00000  0.00000 -0.00000
2021/09/23 14:06:21.000   13.727557289  100.775990120   -13.7904   2   7   0.1933   0.2928   0.9068   0.0629  -0.2299  -0.0271   1.00    0.0   -0.00448   -0.00673    0.06491  10.00000 10.00000 10.00000  0.00000  0.00000  0.00000
2021/09/23 14:06:22.000   13.727557300  100.775990175   -13.8306   2   7   0.1907   0.2886   0.8934   0.0609  -0.2273  -0.0181   1.00    0.0   -0.00448   -0.00673    0.06491  10.00000 10.00000 10.00000  0.00000  0.00000 -0.00000
2021/09/23 14:06:23.000   13.727557063  100.775990142   -13.9255   2   7   0.1871   0.2817   0.7422   0.0584  -0.1788  -0.0251   1.00    1.1   -0.00448   -0.00673    0.06491  10.00000 10.00000 10.00000  0.00000  0.00000 -0.00000
2021/09/23 14:06:24.000   13.727556953  100.775990082   -13.9348   2   7   0.1845   0.2766   0.6676   0.0564  -0.1536  -0.0179   1.00    1.5   -0.00448   -0.00673    0.06491  10.00000 10.00000 10.00000  0.00000 -0.00000  0.00000
2021/09/23 14:06:25.000   13.727556847  100.775990099   -14.0172   2   7   0.1820   0.2722   0.6197   0.0547  -0.1371  -0.0080   1.00    1.1   -0.00448   -0.00673    0.06491  10.00000 10.00000 10.00000  0.00000  0.00000 -0.00000
2021/09/23 14:06:26.000   13.727556700  100.775990009   -14.0279   2   7   0.1797   0.2682   0.5863   0.0531  -0.1257   0.0099   1.00    1.5   -0.00448   -0.00673    0.06491  10.00000 10.00000 10.00000  0.00000  0.00000  0.00000
2021/09/23 14:06:27.000   13.727556583  100.775989995   -14.0516   2   7   0.1774   0.2645   0.5598   0.0516  -0.1166   0.0155   1.00    1.2   -0.00448   -0.00673    0.06491  10.00000 10.00000 10.00000  0.00000  0.00000  0.00000
2021/09/23 14:06:28.000   13.727556432  100.775989934   -14.0968   2   7   0.1752   0.2609   0.5393   0.0502  -0.1099   0.0179   1.00    1.1   -0.00448   -0.00673    0.06491  10.00000 10.00000 10.00000  0.00000  0.00000 -0.00000
2021/09/23 14:06:29.000   13.727556366  100.775989810   -14.1014   2   7   0.1731   0.2576   0.5227   0.0489  -0.1047   0.0189   1.00    1.2   -0.00448   -0.00673    0.06491  10.00000 10.00000 10.00000  0.00000 -0.00000  0.00000
2021/09/23 14:06:30.000   13.727556211  100.775989704   -14.1017   2   7   0.1711   0.2544   0.5084   0.0476  -0.1004   0.0194   1.00    1.1   -0.00448   -0.00673    0.06491  10.00000 10.00000 10.00000 -0.00000  0.00000  0.00000
2021/09/23 14:06:31.000   13.727556182  100.775989593   -14.0831   2   7   0.1691   0.2514   0.4955   0.0464  -0.0966   0.0199   1.00    1.3   -0.00448   -0.00673    0.06491  10.00000 10.00000 10.00000  0.00000  0.00000  0.00000
2021/09/23 14:06:32.000   13.727556123  100.775989546   -14.0880   2   7   0.1672   0.2485   0.4837   0.0453  -0.0931   0.0203   1.00    1.1   -0.00448   -0.00673    0.06491  10.00000 10.00000 10.00000  0.00000  0.00000  0.00000
2021/09/23 14:06:33.000   13.727555992  100.775989450   -14.0946   2   7   0.1653   0.2456   0.4731   0.0442  -0.0900   0.0203   1.00    1.3   -0.00448   -0.00673    0.06491  10.00000 10.00000 10.00000 -0.00000  0.00000 -0.00000
2021/09/23 14:06:34.000   13.727555825  100.775989363   -14.1604   2   7   0.1634   0.2429   0.4637   0.0431  -0.0876   0.0193   1.00    1.0   -0.00448   -0.00673    0.06491  10.00000 10.00000 10.00000  0.00000  0.00000 -0.00000
2021/09/23 14:06:35.000   13.727555625  100.775989316   -14.2313   2   7   0.1616   0.2403   0.4549   0.0420  -0.0854   0.0180   1.00    1.1   -0.00448   -0.00673    0.06491  10.00000 10.00000 10.00000  0.00000  0.00000  0.00000
2021/09/23 14:06:36.000   13.727555425  100.775989239   -14.3303   2   7   0.1598   0.2377   0.4463   0.0409  -0.0832   0.0166   1.00    1.4   -0.00448   -0.00673    0.06491  10.00000 10.00000 10.00000  0.00000  0.00000  0.00000
2021/09/23 14:06:37.000   13.727555214  100.775989133   -14.3894   2   7   0.1580   0.2352   0.4385   0.0399  -0.0814   0.0146   1.00    1.0   -0.00448   -0.00673    0.06491  10.00000 10.00000 10.00000  0.00000  0.00000  0.00000
2021/09/23 14:06:38.000   13.727555004  100.775989041   -14.4725   2   7   0.1563   0.2328   0.4309   0.0389  -0.0796   0.0120   1.00    1.3   -0.00448   -0.00673    0.06491  10.00000 10.00000 10.00000  0.00000 -0.00000  0.00000
2021/09/23 14:06:39.000   13.727554793  100.775988950   -14.5198   2   7   0.1546   0.2305   0.4231   0.0378  -0.0776   0.0094   1.00    1.1   -0.00448   -0.00673    0.06491  10.00000 10.00000 10.00000  0.00000  0.00000  0.00000
2021/09/23 14:06:40.000   13.727554602  100.775988893   -14.5644   2   7   0.1529   0.2282   0.4162   0.0369  -0.0761   0.0028   1.00    1.6   -0.00448   -0.00673    0.06491  10.00000 10.00000 10.00000  0.00000  0.00000  0.00000
2021/09/23 14:06:41.000   13.727554490  100.775988827   -14.6206   2   7   0.1513   0.2261   0.4090   0.0361  -0.0740  -0.0019   1.00    1.1   -0.00448   -0.00673    0.06491  10.00000 10.00000 10.00000  0.00000 -0.00000  0.00000
2021/09/23 14:06:42.000   13.727554343  100.775988796   -14.6713   2   7   0.1498   0.2239   0.4025   0.0352  -0.0726  -0.0093   1.00    1.0   -0.00448   -0.00673    0.06491  10.00000 10.00000 10.00000  0.00000  0.00000 -0.00000
2021/09/23 14:06:43.000   13.727554201  100.775988751   -14.7141   2   7   0.1482   0.2218   0.3952   0.0344  -0.0706  -0.0124   1.00    1.1   -0.00448   -0.00673    0.06491  10.00000 10.00000 10.00000 -0.00000  0.00000 -0.00000
2021/09/23 14:06:44.000   13.727554134  100.775988726   -14.7332   2   7   0.1466   0.2198   0.3891   0.0334  -0.0694  -0.0162   1.00    1.3   -0.00448   -0.00673    0.06491  10.00000 10.00000 10.00000  0.00000  0.00000  0.00000
2021/09/23 14:06:45.000   13.727554113  100.775988663   -14.7003   2   7   0.1450   0.2178   0.3828   0.0324  -0.0679  -0.0191   1.00    1.0   -0.00448   -0.00673    0.06491  10.00000 10.00000 10.00000  0.00000  0.00000  0.00000
2021/09/23 14:06:46.000   13.727554148  100.775988651   -14.6701   2   7   0.1434   0.2159   0.3763   0.0314  -0.0662  -0.0212   1.00    1.3   -0.00448   -0.00673    0.06491  10.00000 10.00000 10.00000  0.00000  0.00000 -0.00000
2021/09/23 14:06:47.000   13.727554275  100.775988642   -14.6445   2   7   0.1418   0.2140   0.3696   0.0304  -0.0644  -0.0231   1.00    1.1   -0.00448   -0.00673    0.06491  10.00000 10.00000 10.00000  0.00000  0.00000  0.00000
2021/09/23 14:06:48.000   13.727554442  100.775988611   -14.5711   2   7   0.1403   0.2122   0.3636   0.0294  -0.0628  -0.0249   1.00    1.2   -0.00448   -0.00673    0.06491  10.00000 10.00000 10.00000  0.00000  0.00000  0.00000
2021/09/23 14:06:49.000   13.727554616  100.775988557   -14.4924   2   7   0.1387   0.2104   0.3576   0.0284  -0.0614  -0.0267   1.00    1.1   -0.00448   -0.00673    0.06491  10.00000 10.00000 10.00000 -0.00000  0.00000  0.00000
2021/09/23 14:06:50.000   13.727554706  100.775988480   -14.4491   2   7   0.1372   0.2086   0.3517   0.0274  -0.0599  -0.0283   1.00    1.2   -0.00448   -0.00673    0.06491  10.00000 10.00000 10.00000  0.00000 -0.00000 -0.00000
2021/09/23 14:06:51.000   13.727554835  100.775988434   -14.4071   2   7   0.1357   0.2069   0.3459   0.0264  -0.0585  -0.0299   1.00    1.4   -0.00448   -0.00673    0.06491  10.00000 10.00000 10.00000  0.00000  0.00000 -0.00000
2021/09/23 14:06:52.000   13.727554955  100.775988424   -14.3691   2   7   0.1344   0.2052   0.3403   0.0257  -0.0570  -0.0311   1.00    1.2   -0.00448   -0.00673    0.06491  10.00000 10.00000 10.00000 -0.00000  0.00000  0.00000
2021/09/23 14:06:53.000   13.727555120  100.775988401   -14.3119   2   7   0.1330   0.2036   0.3348   0.0249  -0.0555  -0.0322   1.00    1.3   -0.00448   -0.00673    0.06491  10.00000 10.00000 10.00000  0.00000  0.00000  0.00000
2021/09/23 14:06:54.000   13.727555264  100.775988379   -14.2575   2   7   0.1315   0.2020   0.3290   0.0239  -0.0538  -0.0335   1.00    1.3   -0.00448   -0.00673    0.06491  10.00000 10.00000 10.00000  0.00000  0.00000  0.00000
2021/09/23 14:06:55.000   13.727555398  100.775988311   -14.2221   2   7   0.1302   0.2004   0.3243   0.0230  -0.0524  -0.0342   1.00    1.1   -0.00448   -0.00673    0.06491  10.00000 10.00000 10.00000  0.00000  0.00000  0.00000
2021/09/23 14:06:56.000   13.727555587  100.775988319   -14.1740   2   7   0.1289   0.1989   0.3190   0.0222  -0.0509  -0.0353   1.00    1.3   -0.00448   -0.00673    0.06491  10.00000 10.00000 10.00000 -0.00000  0.00000  0.00000
2021/09/23 14:06:57.000   13.727555838  100.775988374   -14.1237   2   7   0.1275   0.1974   0.3138   0.0211  -0.0496  -0.0365   1.00    1.3   -0.00448   -0.00673    0.06491  10.00000 10.00000 10.00000  0.00000  0.00000  0.00000
2021/09/23 14:06:58.000   13.727556008  100.775988414   -14.0924   2   7   0.1262   0.1959   0.3086   0.0203  -0.0482  -0.0374   1.00    1.4   -0.00448   -0.00673    0.06491  10.00000 10.00000 10.00000  0.00000  0.00000  0.00000
2021/09/23 14:06:59.000   13.727556123  100.775988446   -14.0547   2   7   0.1249   0.1945   0.3032   0.0195  -0.0464  -0.0383   1.00    1.1   -0.00448   -0.00673    0.06491  10.00000 10.00000 10.00000  0.00000 -0.00000  0.00000
2021/09/23 14:07:00.000   13.727556262  100.775988484   -14.0082   2   7   0.1236   0.1931   0.2980   0.0187  -0.0447  -0.0391   1.00    1.4   -0.00448   -0.00673    0.06491  10.00000 10.00000 10.00000  0.00000  0.00000 -0.00000
2021/09/23 14:07:01.000   13.727556408  100.775988560   -13.9533   2   7   0.1222   0.1917   0.2932   0.0174  -0.0434  -0.0401   1.00    1.4   -0.00448   -0.00673    0.06491  10.00000 10.00000 10.00000 -0.00000  0.00000 -0.00000
2021/09/23 14:07:02.000   13.727556510  100.775988553   -13.9075   2   7   0.1208   0.1903   0.2890   0.0161  -0.0427  -0.0412   1.00    1.4   -0.00448   -0.00673    0.06491  10.00000 10.00000 10.00000  0.00000  0.00000  0.00000
2021/09/23 14:07:03.000   13.727556658  100.775988552   -13.8516   2   7   0.1194   0.1890   0.2839   0.0146  -0.0409  -0.0419   1.00    1.4   -0.00448   -0.00673    0.06491  10.00000 10.00000 10.00000 -0.00000  0.00000  0.00000
2021/09/23 14:07:04.000   13.727556805  100.775988600   -13.7796   2   7   0.1181   0.1877   0.2793   0.0130  -0.0396  -0.0426   1.00    1.4   -0.00448   -0.00673    0.06491  10.00000 10.00000 10.00000  0.00000  0.00000  0.00000
2021/09/23 14:07:05.000   13.727557040  100.775988614   -13.6900   2   7   0.1169   0.1864   0.2748   0.0120  -0.0382  -0.0431   1.00    1.2   -0.00448   -0.00673    0.06491  10.00000 10.00000 10.00000  0.00000 -0.00000 -0.00000
2021/09/23 14:07:06.000   13.727557155  100.775988549   -13.6224   2   7   0.1158   0.1851   0.2702   0.0114  -0.0360  -0.0430   1.00    1.4   -0.00448   -0.00673    0.06491  10.00000 10.00000 10.00000  0.00000  0.00000  0.00000
2021/09/23 14:07:07.000   13.727557631  100.775988662   -13.5277   2   7   0.1145   0.1839   0.2656   0.0093  -0.0342  -0.0435   1.00    1.0   -0.00448   -0.00673    0.06491  10.00000 10.00000 10.00000  0.00000  0.00000 -0.00000
2021/09/23 14:07:08.000   13.727558050  100.775988793   -13.4471   2   7   0.1132   0.1826   0.2614   0.0067  -0.0329  -0.0441   1.00    1.4   -0.00448   -0.00673    0.06491  10.00000 10.00000 10.00000  0.00000 -0.00000  0.00000
2021/09/23 14:07:09.000   13.727558360  100.775988872   -13.3781   2   7   0.1121   0.1815   0.2575   0.0045  -0.0313  -0.0448   1.00    1.5   -0.00448   -0.00673    0.06491  10.00000 10.00000 10.00000  0.00000 -0.00000  0.00000
2021/09/23 14:07:10.000   13.727558633  100.775988905   -13.3263   2   7   0.1108   0.1803   0.2535  -0.0047  -0.0293  -0.0454   1.00    1.4   -0.00448   -0.00673    0.06491  10.00000 10.00000 10.00000  0.00000  0.00000 -0.00000
2021/09/23 14:07:11.000   13.727558797  100.775988874   -13.2780   2   7   0.1097   0.1791   0.2498  -0.0067  -0.0277  -0.0460   1.00    1.0   -0.00448   -0.00673    0.06491  10.00000 10.00000 10.00000  0.00000  0.00000  0.00000
2021/09/23 14:07:12.000   13.727558941  100.775988836   -13.2085   2   7   0.1086   0.1780   0.2456  -0.0081  -0.0256  -0.0461   1.00    1.4   -0.00448   -0.00673    0.06491  10.00000 10.00000 10.00000 -0.00000 -0.00000  0.00000
2021/09/23 14:07:13.000   13.727559100  100.775988830   -13.1369   2   7   0.1075   0.1769   0.2413  -0.0093  -0.0236  -0.0463   1.00    1.4   -0.00448   -0.00673    0.06491  10.00000 10.00000 10.00000  0.00000  0.00000  0.00000
2021/09/23 14:07:14.000   13.727559187  100.775988761   -13.0888   2   7   0.1064   0.1758   0.2374  -0.0104  -0.0214  -0.0466   1.00    1.4   -0.00448   -0.00673    0.06491  10.00000 10.00000 10.00000  0.00000  0.00000  0.00000
2021/09/23 14:07:15.000   13.727559203  100.775988648   -13.0276   2   7   0.1053   0.1747   0.2335  -0.0113  -0.0191  -0.0468   1.00    1.4   -0.00448   -0.00673    0.06491  10.00000 10.00000 10.00000  0.00000  0.00000  0.00000
2021/09/23 14:07:16.000   13.727559239  100.775988513   -12.9533   2   7   0.1041   0.1736   0.2299  -0.0129  -0.0175  -0.0471   1.00    1.6   -0.00448   -0.00673    0.06491  10.00000 10.00000 10.00000  0.00000 -0.00000 -0.00000
2021/09/23 14:07:17.000   13.727559303  100.775988423   -12.9116   2   7   0.1028   0.1725   0.2261  -0.0143  -0.0148  -0.0471   1.00    1.4   -0.00448   -0.00673    0.06491  10.00000 10.00000 10.00000  0.00000  0.00000 -0.00000
2021/09/23 14:07:18.000   13.727559474  100.775988450   -12.8791   2   7   0.1018   0.1715   0.2223  -0.0149  -0.0117  -0.0472   1.00    1.0   -0.00448   -0.00673    0.06491  10.00000 10.00000 10.00000  0.00000  0.00000  0.00000
2021/09/23 14:07:19.000   13.727559555  100.775988378   -12.8389   2   7   0.1006   0.1705   0.2187  -0.0161  -0.0076  -0.0472   1.00    1.4   -0.00448   -0.00673    0.06491  10.00000 10.00000 10.00000  0.00000  0.00000 -0.00000
2021/09/23 14:07:20.000   13.727559696  100.775988385   -12.7877   2   7   0.0996   0.1695   0.2154  -0.0166  -0.0010  -0.0472   1.00    1.5   -0.00448   -0.00673    0.06491  10.00000 10.00000 10.00000  0.00000 -0.00000  0.00000
2021/09/23 14:07:21.000   13.727559790  100.775988382   -12.7550   2   7   0.0986   0.1685   0.2121  -0.0171   0.0074  -0.0472   1.00    1.4   -0.00448   -0.00673    0.06491  10.00000 10.00000 10.00000  0.00000  0.00000  0.00000
2021/09/23 14:07:22.000   13.727559829  100.775988346   -12.7306   2   7   0.0976   0.1676   0.2087  -0.0175   0.0113  -0.0471   1.00    1.1   -0.00448   -0.00673    0.06491  10.00000 10.00000 10.00000  0.00000  0.00000  0.00000
2021/09/23 14:07:23.000   13.727559904  100.775988344   -12.6863   2   7   0.0964   0.1666   0.2052  -0.0184   0.0129  -0.0468   1.00    1.4   -0.00448   -0.00673    0.06491  10.00000 10.00000 10.00000  0.00000 -0.00000  0.00000
2021/09/23 14:07:24.000   13.727559954  100.775988378   -12.6737   2   7   0.0953   0.1656   0.2019  -0.0193   0.0153  -0.0468   1.00    1.1   -0.00448   -0.00673    0.06491  10.00000 10.00000 10.00000  0.00000  0.00000  0.00000
2021/09/23 14:07:25.000   13.727560051  100.775988418   -12.6389   2   7   0.0942   0.1647   0.1987  -0.0201   0.0173  -0.0467   1.00    1.4   -0.00448   -0.00673    0.06491  10.00000 10.00000 10.00000  0.00000  0.00000 -0.00000
2021/09/23 14:07:26.000   13.727560191  100.775988481   -12.6090   2   7   0.0931   0.1637   0.1958  -0.0208   0.0184  -0.0467   1.00    1.0   -0.00448   -0.00673    0.06491  10.00000 10.00000 10.00000  0.00000  0.00000  0.00000
2021/09/23 14:07:27.000   13.727560384  100.775988618   -12.5859   2   7   0.0920   0.1628   0.1928  -0.0215   0.0200  -0.0466   1.00    1.4   -0.00448   -0.00673    0.06491  10.00000 10.00000 10.00000  0.00000  0.00000  0.00000
2021/09/23 14:07:28.000   13.727560601  100.775988699   -12.5633   2   7   0.0910   0.1619   0.1903  -0.0221   0.0212  -0.0469   1.00    1.1   -0.00448   -0.00673    0.06491  10.00000 10.00000 10.00000  0.00000  0.00000  0.00000
2021/09/23 14:07:29.000   13.727560723  100.775988825   -12.5384   2   7   0.0899   0.1610   0.1876  -0.0227   0.0220  -0.0468   1.00    1.4   -0.00448   -0.00673    0.06491  10.00000 10.00000 10.00000 -0.00000  0.00000 -0.00000
2021/09/23 14:07:30.000   13.727560839  100.775988858   -12.5367   2   7   0.0889   0.1602   0.1852  -0.0232   0.0231  -0.0469   1.00    1.6   -0.00448   -0.00673    0.06491  10.00000 10.00000 10.00000  0.00000 -0.00000  0.00000
2021/09/23 14:07:31.000   13.727560844  100.775988870   -12.5380   2   7   0.0879   0.1593   0.1823  -0.0237   0.0242  -0.0468   1.00    1.4   -0.00448   -0.00673    0.06491  10.00000 10.00000 10.00000  0.00000  0.00000  0.00000
2021/09/23 14:07:32.000   13.727560751  100.775988825   -12.5487   2   7   0.0871   0.1585   0.1796  -0.0239   0.0249  -0.0466   1.00    1.1   -0.00448   -0.00673    0.06491  10.00000 10.00000 10.00000  0.00000  0.00000  0.00000
2021/09/23 14:07:33.000   13.727560705  100.775988733   -12.5322   2   7   0.0862   0.1576   0.1769  -0.0240   0.0259  -0.0464   1.00    1.4   -0.00448   -0.00673    0.06491  10.00000 10.00000 10.00000  0.00000 -0.00000  0.00000
2021/09/23 14:07:34.000   13.727560590  100.775988560   -12.5063   2   7   0.0852   0.1568   0.1742  -0.0245   0.0268  -0.0462   1.00    1.0   -0.00448   -0.00673    0.06491  10.00000 10.00000 10.00000 -0.00000  0.00000 -0.00000
2021/09/23 14:07:35.000   13.727560678  100.775988468   -12.5002   2   7   0.0846   0.1560   0.1725  -0.0245   0.0273  -0.0460   1.00    1.4   -0.00448   -0.00673    0.06491  10.00000 10.00000 10.00000  0.00000  0.00000 -0.00000
2021/09/23 14:07:36.000   13.727560620  100.775988272   -12.4865   2   7   0.0837   0.1552   0.1700  -0.0247   0.0284  -0.0456   1.00    1.1   -0.00448   -0.00673    0.06491  10.00000 10.00000 10.00000  0.00000  0.00000  0.00000
2021/09/23 14:07:37.000   13.727560376  100.775988028   -12.4960   2   7   0.0827   0.1544   0.1674  -0.0252   0.0291  -0.0454   1.00    1.3   -0.00448   -0.00673    0.06491  10.00000 10.00000 10.00000  0.00000  0.00000 -0.00000
2021/09/23 14:07:38.000   13.727560168  100.775987794   -12.5056   2   7   0.0818   0.1536   0.1651  -0.0256   0.0295  -0.0452   1.00    1.3   -0.00448   -0.00673    0.06491  10.00000 10.00000 10.00000  0.00000  0.00000  0.00000
2021/09/23 14:07:39.000   13.727560032  100.775987596   -12.5191   2   7   0.0809   0.1528   0.1626  -0.0260   0.0301  -0.0450   1.00    1.0   -0.00448   -0.00673    0.06491  10.00000 10.00000 10.00000  0.00000 -0.00000  0.00000
2021/09/23 14:07:40.000   13.727559937  100.775987398   -12.5135   2   7   0.0800   0.1520   0.1602  -0.0263   0.0308  -0.0448   1.00    1.3   -0.00448   -0.00673    0.06491  10.00000 10.00000 10.00000  0.00000  0.00000  0.00000
2021/09/23 14:07:41.000   13.727559846  100.775987184   -12.5131   2   7   0.0791   0.1513   0.1580  -0.0266   0.0311  -0.0446   1.00    1.1   -0.00448   -0.00673    0.06491  10.00000 10.00000 10.00000  0.00000  0.00000  0.00000
2021/09/23 14:07:42.000   13.727559767  100.775986999   -12.5157   2   7   0.0782   0.1505   0.1559  -0.0269   0.0314  -0.0444   1.00    1.2   -0.00448   -0.00673    0.06491  10.00000 10.00000 10.00000  0.00000  0.00000  0.00000
2021/09/23 14:07:43.000   13.727559802  100.775986902   -12.5099   2   7   0.0774   0.1498   0.1538  -0.0272   0.0317  -0.0442   1.00    1.8   -0.00448   -0.00673    0.06491  10.00000 10.00000 10.00000  0.00000  0.00000  0.00000
2021/09/23 14:07:44.000   13.727559886  100.775986866   -12.4940   2   7   0.0765   0.1491   0.1517  -0.0274   0.0320  -0.0440   1.00    1.2   -0.00448   -0.00673    0.06491  10.00000 10.00000 10.00000  0.00000  0.00000  0.00000
2021/09/23 14:07:45.000   13.727560051  100.775986892   -12.4769   2   7   0.0757   0.1483   0.1496  -0.0277   0.0325  -0.0438   1.00    1.1   -0.00448   -0.00673    0.06491  10.00000 10.00000 10.00000  0.00000  0.00000  0.00000
2021/09/23 14:07:46.000   13.727560126  100.775986878   -12.4560   2   7   0.0749   0.1476   0.1476  -0.0279   0.0327  -0.0436   1.00    1.1   -0.00448   -0.00673    0.06491  10.00000 10.00000 10.00000  0.00000  0.00000  0.00000
2021/09/23 14:07:47.000   13.727560180  100.775986918   -12.4391   2   7   0.0741   0.1469   0.1460  -0.0281   0.0326  -0.0435   1.00    1.3   -0.00448   -0.00673    0.06491  10.00000 10.00000 10.00000 -0.00000  0.00000  0.00000
2021/09/23 14:07:48.000   13.727560210  100.775986927   -12.4194   2   7   0.0733   0.1463   0.1445  -0.0282   0.0325  -0.0435   1.00    1.1   -0.00448   -0.00673    0.06491  10.00000 10.00000 10.00000  0.00000  0.00000 -0.00000
2021/09/23 14:07:49.000   13.727560173  100.775986910   -12.4072   2   7   0.0726   0.1456   0.1429  -0.0284   0.0324  -0.0434   1.00    1.4   -0.00448   -0.00673    0.06491  10.00000 10.00000 10.00000  0.00000  0.00000  0.00000
2021/09/23 14:07:50.000   13.727560122  100.775986859   -12.3969   2   7   0.0719   0.1449   0.1411  -0.0284   0.0329  -0.0430   1.00    1.1   -0.00448   -0.00673    0.06491  10.00000 10.00000 10.00000  0.00000  0.00000  0.00000
2021/09/23 14:07:51.000   13.727559888  100.775986695   -12.3935   2   7   0.0711   0.1442   0.1392  -0.0286   0.0331  -0.0427   1.00    1.3   -0.00448   -0.00673    0.06491  10.00000 10.00000 10.00000  0.00000 -0.00000  0.00000
2021/09/23 14:07:52.000   13.727559635  100.775986551   -12.4027   2   7   0.0704   0.1436   0.1374  -0.0288   0.0334  -0.0425   1.00    1.0   -0.00448   -0.00673    0.06491  10.00000 10.00000 10.00000  0.00000  0.00000 -0.00000
2021/09/23 14:07:53.000   13.727559399  100.775986452   -12.4029   2   7   0.0696   0.1429   0.1356  -0.0289   0.0336  -0.0422   1.00    1.2   -0.00448   -0.00673    0.06491  10.00000 10.00000 10.00000  0.00000  0.00000  0.00000
2021/09/23 14:07:54.000   13.727559113  100.775986322   -12.4155   2   7   0.0689   0.1423   0.1338  -0.0291   0.0339  -0.0420   1.00    1.0   -0.00448   -0.00673    0.06491  10.00000 10.00000 10.00000 -0.00000  0.00000  0.00000
2021/09/23 14:07:55.000   13.727558847  100.775986144   -12.4227   2   7   0.0682   0.1416   0.1321  -0.0292   0.0341  -0.0417   1.00    1.1   -0.00448   -0.00673    0.06491  10.00000 10.00000 10.00000  0.00000  0.00000  0.00000
2021/09/23 14:07:56.000   13.727558575  100.775985973   -12.4254   2   7   0.0675   0.1410   0.1304  -0.0294   0.0343  -0.0414   1.00    1.1   -0.00448   -0.00673    0.06491  10.00000 10.00000 10.00000  0.00000  0.00000  0.00000
2021/09/23 14:07:57.000   13.727554698  100.775986899   -11.3253   1   7   0.0005   0.0007   0.0026  -0.0002  -0.0009   0.0006   1.00    2.6   -0.00448   -0.00673    0.06491  10.00000 10.00000 10.00000  0.00000  0.00000  0.00000
2021/09/23 14:07:58.000   13.727554699  100.775986897   -11.3250   1   7   0.0005   0.0007   0.0026  -0.0002  -0.0009   0.0006   1.00    2.7   -0.00448   -0.00673    0.06491  10.00000 10.00000 10.00000  0.00000  0.00000  0.00000
2021/09/23 14:07:59.000   13.727554699  100.775986894   -11.3244   1   7   0.0005   0.0007   0.0026  -0.0002  -0.0009   0.0006   1.00    2.7   -0.00448   -0.00673    0.06491  10.00000 10.00000 10.00000  0.00000  0.00000  0.00000
2021/09/23 14:08:00.000   13.727554699  100.775986890   -11.3239   1   7   0.0005   0.0007   0.0026  -0.0002  -0.0009   0.0006   1.00    2.8   -0.00448   -0.00673    0.06491  10.00000 10.00000 10.00000  0.00000  0.00000  0.00000
2021/09/23 14:08:01.000   13.727554699  100.775986887   -11.3234   1   7   0.0005   0.0007   0.0026  -0.0002  -0.0009   0.0006   1.00    2.9   -0.00448   -0.00673    0.06491  10.00000 10.00000 10.00000  0.00000  0.00000 -0.00000
2021/09/23 14:08:02.000   13.727554700  100.775986883   -11.3229   1   7   0.0005   0.0007   0.0026  -0.0002  -0.0009   0.0006   1.00    2.9   -0.00448   -0.00673    0.06491  10.00000 10.00000 10.00000 -0.00000  0.00000  0.00000
2021/09/23 14:08:03.000   13.727554700  100.775986879   -11.3223   1   7   0.0005   0.0007   0.0026  -0.0002  -0.0008   0.0006   1.00    3.0   -0.00448   -0.00673    0.06491  10.00000 10.00000 10.00000 -0.00000  0.00000  0.00000
2021/09/23 14:08:04.000   13.727554701  100.775986878   -11.3219   1   7   0.0005   0.0007   0.0026  -0.0002  -0.0008   0.0006   1.00    3.0   -0.00448   -0.00673    0.06491  10.00000 10.00000 10.00000  0.00000  0.00000  0.00000
2021/09/23 14:08:05.000   13.727554702  100.775986876   -11.3216   1   7   0.0005   0.0007   0.0026  -0.0002  -0.0008   0.0006   1.00    3.0   -0.00448   -0.00673    0.06491  10.00000 10.00000 10.00000  0.00000  0.00000  0.00000
2021/09/23 14:08:06.000   13.727554703  100.775986875   -11.3212   1   7   0.0005   0.0007   0.0025  -0.0002  -0.0008   0.0006   1.00    3.1   -0.00448   -0.00673    0.06491  10.00000 10.00000 10.00000  0.00000  0.00000 -0.00000
2021/09/23 14:08:07.000   13.727556222  100.775983989   -12.4486   2   7   0.0607   0.1344   0.1147  -0.0301   0.0354  -0.0389   1.00    1.4   -0.00448   -0.00673    0.06491  10.00000 10.00000 10.00000  0.00000  0.00000  0.00000
2021/09/23 14:08:08.000   13.727554705  100.775986874   -11.3205   1   7   0.0005   0.0007   0.0025  -0.0002  -0.0008   0.0006   1.00    3.0   -0.00448   -0.00673    0.06491  10.00000 10.00000 10.00000  0.00000  0.00000  0.00000
2021/09/23 14:08:09.000   13.727554707  100.775986873   -11.3202   1   7   0.0005   0.0007   0.0025  -0.0002  -0.0008   0.0006   1.00    3.0   -0.00448   -0.00673    0.06491  10.00000 10.00000 10.00000  0.00000  0.00000 -0.00000
2021/09/23 14:08:10.000   13.727554708  100.775986872   -11.3197   1   7   0.0005   0.0007   0.0025  -0.0002  -0.0008   0.0006   1.00    3.0   -0.00448   -0.00673    0.06491  10.00000 10.00000 10.00000  0.00000  0.00000 -0.00000
2021/09/23 14:08:11.000   13.727554709  100.775986871   -11.3194   1   7   0.0005   0.0007   0.0025  -0.0002  -0.0008   0.0006   1.00    3.0   -0.00448   -0.00673    0.06491  10.00000 10.00000 10.00000 -0.00000  0.00000  0.00000
2021/09/23 14:08:12.000   13.727554709  100.775986869   -11.3190   1   7   0.0005   0.0006   0.0025  -0.0002  -0.0008   0.0006   1.00    3.0   -0.00448   -0.00673    0.06491  10.00000 10.00000 10.00000  0.00000  0.00000  0.00000
2021/09/23 14:08:13.000   13.727554710  100.775986866   -11.3186   1   7   0.0005   0.0006   0.0025  -0.0002  -0.0008   0.0006   1.00    3.0   -0.00448   -0.00673    0.06491  10.00000 10.00000 10.00000  0.00000  0.00000  0.00000
2021/09/23 14:08:14.000   13.727554710  100.775986863   -11.3182   1   7   0.0005   0.0006   0.0025  -0.0002  -0.0008   0.0006   1.00    2.9   -0.00448   -0.00673    0.06491  10.00000 10.00000 10.00000  0.00000  0.00000  0.00000
2021/09/23 14:08:15.000   13.727554711  100.775986859   -11.3174   1   7   0.0005   0.0006   0.0025  -0.0002  -0.0008   0.0006   1.00    2.9   -0.00448   -0.00673    0.06491  10.00000 10.00000 10.00000  0.00000  0.00000  0.00000
2021/09/23 14:08:16.000   13.727554711  100.775986855   -11.3167   1   7   0.0005   0.0006   0.0024  -0.0002  -0.0008   0.0006   1.00    2.8   -0.00448   -0.00673    0.06491  10.00000 10.00000 10.00000  0.00000  0.00000  0.00000
2021/09/23 14:08:17.000   13.727554711  100.775986851   -11.3161   1   7   0.0005   0.0006   0.0024  -0.0002  -0.0008   0.0006   1.00    2.8   -0.00448   -0.00673    0.06491  10.00000 10.00000 10.00000  0.00000  0.00000  0.00000
2021/09/23 14:08:18.000   13.727554327  100.775981789   -12.5751   2   7   0.0547   0.1285   0.1021  -0.0304   0.0356  -0.0365   1.00    1.4   -0.00448   -0.00673    0.06491  10.00000 10.00000 10.00000  0.00000  0.00000  0.00000
2021/09/23 14:08:19.000   13.727554472  100.775981793   -12.5701   2   6   0.0544   0.1283   0.1010  -0.0302   0.0359  -0.0361   1.00    1.4   -0.00448   -0.00673    0.06491  10.00000 10.00000 10.00000  0.00000  0.00000  0.00000
2021/09/23 14:08:20.000   13.727554573  100.775981853   -12.5634   2   7   0.0540   0.1278   0.0999  -0.0299   0.0362  -0.0357   1.00    1.1   -0.00448   -0.00673    0.06491  10.00000 10.00000 10.00000  0.00000  0.00000  0.00000
2021/09/23 14:08:21.000   13.727554614  100.775981947   -12.5527   2   7   0.0537   0.1273   0.0988  -0.0297   0.0364  -0.0353   1.00    1.0   -0.00448   -0.00673    0.06491  10.00000 10.00000 10.00000  0.00000  0.00000  0.00000
2021/09/23 14:08:22.000   13.727554716  100.775982022   -12.5514   2   7   0.0534   0.1269   0.0981  -0.0295   0.0365  -0.0351   1.00    1.2   -0.00448   -0.00673    0.06491  10.00000 10.00000 10.00000  0.00000  0.00000  0.00000
2021/09/23 14:08:23.000   13.727554782  100.775982124   -12.5322   2   7   0.0531   0.1265   0.0973  -0.0292   0.0366  -0.0347   1.00    1.0   -0.00448   -0.00673    0.06491  10.00000 10.00000 10.00000  0.00000 -0.00000  0.00000
2021/09/23 14:08:24.000   13.727554832  100.775982221   -12.5075   2   7   0.0528   0.1261   0.0963  -0.0290   0.0368  -0.0344   1.00    1.2   -0.00448   -0.00673    0.06491  10.00000 10.00000 10.00000  0.00000  0.00000 -0.00000
2021/09/23 14:08:25.000   13.727554912  100.775982337   -12.4949   2   7   0.0525   0.1256   0.0955  -0.0287   0.0368  -0.0340   1.00    1.2   -0.00448   -0.00673    0.06491  10.00000 10.00000 10.00000  0.00000 -0.00000 -0.00000
2021/09/23 14:08:26.000   13.727554955  100.775982485   -12.4761   2   7   0.0521   0.1252   0.0948  -0.0284   0.0368  -0.0337   1.00    1.1   -0.00448   -0.00673    0.06491  10.00000 10.00000 10.00000  0.00000 -0.00000  0.00000
2021/09/23 14:08:27.000   13.727555055  100.775982587   -12.4640   2   7   0.0518   0.1248   0.0941  -0.0282   0.0369  -0.0335   1.00    1.1   -0.00448   -0.00673    0.06491  10.00000 10.00000 10.00000  0.00000  0.00000  0.00000
2021/09/23 14:08:28.000   13.727555122  100.775982697   -12.4468   2   7   0.0515   0.1244   0.0931  -0.0280   0.0371  -0.0331   1.00    1.4   -0.00448   -0.00673    0.06491  10.00000 10.00000 10.00000  0.00000  0.00000  0.00000
2021/09/23 14:08:29.000   13.727555178  100.775982859   -12.4418   2   7   0.0512   0.1240   0.0920  -0.0277   0.0374  -0.0327   1.00    1.1   -0.00448   -0.00673    0.06491  10.00000 10.00000 10.00000  0.00000  0.00000  0.00000
2021/09/23 14:08:30.000   13.727555211  100.775983024   -12.4348   2   7   0.0509   0.1235   0.0909  -0.0275   0.0377  -0.0324   1.00    1.0   -0.00448   -0.00673    0.06491  10.00000 10.00000 10.00000  0.00000  0.00000 -0.00000
2021/09/23 14:08:31.000   13.727555234  100.775983177   -12.4273   2   7   0.0506   0.1231   0.0899  -0.0273   0.0379  -0.0320   1.00    1.2   -0.00448   -0.00673    0.06491  10.00000 10.00000 10.00000 -0.00000  0.00000  0.00000
2021/09/23 14:08:32.000   13.727555251  100.775983298   -12.4101   2   7   0.0503   0.1227   0.0892  -0.0270   0.0379  -0.0318   1.00    1.1   -0.00448   -0.00673    0.06491  10.00000 10.00000 10.00000 -0.00000 -0.00000  0.00000
2021/09/23 14:08:33.000   13.727555245  100.775983432   -12.3942   2   7   0.0500   0.1223   0.0885  -0.0268   0.0379  -0.0315   1.00    1.2   -0.00448   -0.00673    0.06491  10.00000 10.00000 10.00000 -0.00000  0.00000 -0.00000
2021/09/23 14:08:34.000   13.727555239  100.775983549   -12.3819   2   7   0.0497   0.1219   0.0876  -0.0265   0.0380  -0.0312   1.00    1.0   -0.00448   -0.00673    0.06491  10.00000 10.00000 10.00000  0.00000  0.00000  0.00000
2021/09/23 14:08:35.000   13.727555243  100.775983684   -12.3743   2   7   0.0494   0.1216   0.0867  -0.0263   0.0382  -0.0308   1.00    1.1   -0.00448   -0.00673    0.06491  10.00000 10.00000 10.00000  0.00000 -0.00000 -0.00000
2021/09/23 14:08:36.000   13.727555227  100.775983784   -12.3610   2   7   0.0491   0.1212   0.0858  -0.0261   0.0383  -0.0305   1.00    1.2   -0.00448   -0.00673    0.06491  10.00000 10.00000 10.00000 -0.00000  0.00000  0.00000
2021/09/23 14:08:37.000   13.727555224  100.775983909   -12.3652   2   7   0.0488   0.1208   0.0850  -0.0259   0.0384  -0.0302   1.00    1.1   -0.00448   -0.00673    0.06491  10.00000 10.00000 10.00000  0.00000  0.00000  0.00000
2021/09/23 14:08:38.000   13.727555227  100.775984004   -12.3615   2   7   0.0485   0.1204   0.0844  -0.0257   0.0384  -0.0300   1.00    1.1   -0.00448   -0.00673    0.06491  10.00000 10.00000 10.00000  0.00000  0.00000  0.00000
2021/09/23 14:08:39.000   13.727555197  100.775984106   -12.3557   2   7   0.0482   0.1200   0.0838  -0.0254   0.0383  -0.0297   1.00    1.1   -0.00448   -0.00673    0.06491  10.00000 10.00000 10.00000  0.00000  0.00000  0.00000
2021/09/23 14:08:40.000   13.727555166  100.775984195   -12.3564   2   7   0.0479   0.1197   0.0829  -0.0252   0.0384  -0.0294   1.00    1.6   -0.00448   -0.00673    0.06491  10.00000 10.00000 10.00000  0.00000  0.00000 -0.00000
2021/09/23 14:08:41.000   13.727555112  100.775984313   -12.3617   2   7   0.0476   0.1193   0.0821  -0.0250   0.0385  -0.0291   1.00    1.1   -0.00448   -0.00673    0.06491  10.00000 10.00000 10.00000 -0.00000  0.00000  0.00000
2021/09/23 14:08:42.000   13.727555032  100.775984415   -12.3601   2   7   0.0473   0.1189   0.0813  -0.0248   0.0386  -0.0288   1.00    1.7   -0.00448   -0.00673    0.06491  10.00000 10.00000 10.00000 -0.00000  0.00000 -0.00000
