% (lat/lon/height=WGS84/ellipsoidal,Q=1:fix,2:float,3:sbas,4:dgps,5:single,6:ppp,ns=# of satellites)
%  GPST                  latitude(deg) longitude(deg)  height(m)   Q  ns   sdn(m)   sde(m)   sdu(m)  sdne(m)  sdeu(m)  sdun(m) age(s)  ratio    vn(m/s)    ve(m/s)    vu(m/s)      sdvn     sdve     sdvu    sdvne    sdveu    sdvun
2021/09/23 14:05:19.000   13.727533813  100.775972088   -14.0510   5   6   3.9174   7.1937  20.8052   4.3947  10.2026   5.7272   0.00    0.0    0.01418    0.04080    0.16223   0.20631  0.31270  0.71156  0.21449  0.35551  0.27376
2021/09/23 14:05:20.000   13.727532977  100.775970296   -14.7163   5   6   3.9179   7.1971  20.8183   4.3964  10.2108   5.7322   0.00    0.0    0.02347   -0.00105    0.05028   0.20631  0.31273  0.71160  0.21451  0.35557  0.27378
2021/09/23 14:05:21.000   13.727532313  100.775969623   -15.1834   5   6   3.9184   7.2004  20.8313   4.3982  10.2189   5.7372   0.00    0.0    0.01493    0.00555    0.00883   0.20632  0.31277  0.71165  0.21452  0.35564  0.27380
2021/09/23 14:05:22.000   13.727530762  100.775965987   -15.2310   5   6   3.9190   7.2038  20.8444   4.4000  10.2270   5.7421   0.00    0.0   -0.02877   -0.03158   -0.08301   0.20632  0.31280  0.71169  0.21454  0.35570  0.27382
2021/09/23 14:05:23.000   13.727530943  100.775965330   -15.4742   5   6   3.9195   7.2072  20.8575   4.4017  10.2352   5.7471   0.00    0.0   -0.00448   -0.00673    0.06491   0.20632  0.31283  0.71174  0.21455  0.35576  0.27383
2021/09/23 14:05:24.000   13.727532115  100.775966996   -16.2154   5   6   3.9200   7.2106  20.8706   4.4035  10.2434   5.7521   0.00    0.0    0.02793    0.04498    0.02135   0.20632  0.31286  0.71178  0.21457  0.35583  0.27385
2021/09/23 14:05:25.000   13.727531955  100.775968122   -15.4226   5   6   3.9205   7.2140  20.8838   4.4053  10.2515   5.7571   0.00    0.0    0.00931    0.06671    0.09829   0.20632  0.31289  0.71183  0.21458  0.35589  0.27387
2021/09/23 14:05:26.000   13.727533007  100.775967316   -16.2576   5   6   3.9210   7.2174  20.8969   4.4071  10.2597   5.7621   0.00    0.0    0.02785    0.06573    0.15180   0.20632  0.31292  0.71187  0.21460  0.35595  0.27388
2021/09/23 14:05:27.000   13.727532918  100.775969260   -15.7955   5   6   3.9215   7.2208  20.9100   4.4088  10.2679   5.7671   0.00    0.0    0.02245    0.04533    0.05976   0.20633  0.31296  0.71192  0.21461  0.35602  0.27390
2021/09/23 14:05:28.000   13.727533233  100.775968378   -16.1843   5   6   3.9220   7.2242  20.9232   4.4106  10.2761   5.7721   0.00    0.0    0.01509    0.03246    0.01995   0.20633  0.31299  0.71196  0.21463  0.35608  0.27392
2021/09/23 14:05:29.000   13.727532891  100.775970465   -15.1669   5   6   3.9226   7.2276  20.9364   4.4124  10.2843   5.7771   0.00    0.0   -0.00538    0.00792   -0.04694   0.20633  0.31302  0.71201  0.21464  0.35614  0.27393
2021/09/23 14:05:30.000   13.727533748  100.775971886   -14.9703   5   6   3.9231   7.2311  20.9496   4.4142  10.2925   5.7821   0.00    0.0    0.01836    0.05328    0.12515   0.20633  0.31305  0.71205  0.21466  0.35620  0.27395
2021/09/23 14:05:31.000   13.727534877  100.775972310   -15.2330   5   6   3.9236   7.2345  20.9628   4.4160  10.3007   5.7871   0.00    0.0    0.01593    0.02857    0.00625   0.20633  0.31308  0.71209  0.21467  0.35627  0.27397
2021/09/23 14:05:32.000   13.727534672  100.775972763   -14.6449   5   6   3.9241   7.2379  20.9760   4.4178  10.3089   5.7921   0.00    0.0   -0.00295   -0.01019   -0.01380   0.20633  0.31311  0.71214  0.21469  0.35633  0.27398
2021/09/23 14:05:33.000   13.727535145  100.775972588   -14.5120   5   6   3.9246   7.2414  20.9892   4.4196  10.3172   5.7971   0.00    0.0    0.00662   -0.02794   -0.07069   0.20633  0.31315  0.71218  0.21470  0.35639  0.27400
2021/09/23 14:05:34.000   13.727535779  100.775973701   -13.8593   5   6   3.9252   7.2448  21.0025   4.4214  10.3254   5.8022   0.00    0.0   -0.02266   -0.04725   -0.09415   0.20634  0.31318  0.71222  0.21471  0.35645  0.27402
2021/09/23 14:05:35.000   13.727535977  100.775977632   -12.8263   5   6   3.9257   7.2483  21.0157   4.4232  10.3337   5.8072   0.00    0.0    0.02377   -0.00609    0.01149   0.20634  0.31321  0.71226  0.21473  0.35651  0.27403
2021/09/23 14:05:36.000   13.727536077  100.775977035   -13.1043   5   6   3.9262   7.2517  21.0290   4.4250  10.3419   5.8122   0.00    0.0    0.00995    0.01291    0.00791   0.20634  0.31324  0.71231  0.21474  0.35658  0.27405
2021/09/23 14:05:37.000   13.727537151  100.775977677   -12.8584   5   6   3.9268   7.2552  21.0423   4.4268  10.3502   5.8173   0.00    0.0   -0.01610   -0.03350   -0.10606   0.20634  0.31327  0.71235  0.21476  0.35664  0.27406
2021/09/23 14:05:38.000   13.727535574  100.775973630   -13.8855   5   6   3.9273   7.2587  21.0556   4.4286  10.3585   5.8223   0.00    0.0    0.00675    0.05916    0.13622   0.20634  0.31330  0.71239  0.21477  0.35670  0.27408
2021/09/23 14:05:39.000   13.727536470  100.775975410   -13.2084   5   6   3.9278   7.2621  21.0689   4.4305  10.3668   5.8274   0.00    0.0    0.03240    0.04435    0.09180   0.20634  0.31333  0.71243  0.21478  0.35676  0.27409
2021/09/23 14:05:40.000   13.727536911  100.775975267   -12.7577   5   6   3.9284   7.2656  21.0822   4.4323  10.3751   5.8324   0.00    0.0   -0.02041   -0.02668   -0.02758   0.20634  0.31337  0.71247  0.21480  0.35682  0.27411
2021/09/23 14:05:41.000   13.727537581  100.775975366   -13.2821   5   6   3.9289   7.2691  21.0955   4.4341  10.3834   5.8375   0.00    0.0    0.02707    0.00769    0.02655   0.20634  0.31340  0.71251  0.21481  0.35688  0.27412
2021/09/23 14:05:42.000   13.727539065  100.775979876   -11.7798   5   6   3.9294   7.2726  21.1089   4.4359  10.3917   5.8426   0.00    0.0    0.03134    0.04153    0.05037   0.20635  0.31343  0.71256  0.21483  0.35694  0.27414
2021/09/23 14:05:43.000   13.727538376  100.775980352   -10.8966   5   6   3.9300   7.2761  21.1222   4.4378  10.4000   5.8476   0.00    0.0   -0.00244   -0.04590   -0.08297   0.20635  0.31346  0.71260  0.21484  0.35700  0.27415
2021/09/23 14:05:44.000   13.727538782  100.775983319    -9.9899   5   6   3.9305   7.2796  21.1356   4.4396  10.4083   5.8527   0.00    0.0    0.00785    0.03701    0.00654   0.20635  0.31349  0.71264  0.21485  0.35706  0.27417
2021/09/23 14:05:46.000   13.727539768  100.775980342   -11.1072   5   6   3.9316   7.2866  21.1624   4.4433  10.4250   5.8629   0.00    0.0    0.01292    0.00663   -0.03738   0.20635  0.31355  0.71272  0.21488  0.35719  0.27420
2021/09/23 14:05:47.000   13.727540270  100.775981681   -10.8228   5   6   3.9321   7.2901  21.1758   4.4451  10.4333   5.8680   0.00    0.0   -0.02468   -0.07410   -0.21401   0.20635  0.31358  0.71276  0.21490  0.35725  0.27421
2021/09/23 14:05:48.000   13.727541626  100.775982942   -11.4790   5   6   3.9327   7.2936  21.1892   4.4470  10.4417   5.8731   0.00    0.0    0.03220    0.05007    0.08155   0.20635  0.31361  0.71280  0.21491  0.35731  0.27423
2021/09/23 14:05:49.000   13.727540427  100.775987084   -11.9715   5  11   1.8924   2.6480   8.1945   0.8399  -0.8523  -0.6208   0.00    0.0    0.00600   -0.00989    0.01023   0.09573  0.13663  0.46689  0.02603  0.06670  0.04345
2021/09/23 14:05:50.000   13.727540143  100.775987640   -12.2932   5  11   1.8923   2.6479   8.1953   0.8395  -0.8518  -0.6211   0.00    0.0    0.03652   -0.00211   -0.03486   0.09573  0.13663  0.46693  0.02600  0.06677  0.04346
2021/09/23 14:05:52.000   13.727540710  100.775987480   -12.4145   5  11   1.8920   2.6477   8.1969   0.8389  -0.8510  -0.6218   0.00    0.0    0.01195   -0.01394    0.08853   0.09573  0.13663  0.46702  0.02596  0.06691  0.04349
2021/09/23 14:05:53.000   13.727540540  100.775987897   -12.4424   5  11   1.8919   2.6476   8.1976   0.8385  -0.8506  -0.6222   0.00    0.0    0.03326   -0.02432    0.03236   0.09572  0.13663  0.46707  0.02593  0.06699  0.04350
2021/09/23 14:05:54.000   13.727540967  100.775988500   -12.4922   5  11   1.8918   2.6475   8.1984   0.8382  -0.8502  -0.6225   0.00    0.0   -0.01428   -0.02146    0.05416   0.09572  0.13663  0.46711  0.02591  0.06706  0.04351
2021/09/23 14:05:55.000   13.727541223  100.775989072   -13.1150   5  11   1.8917   2.6474   8.1992   0.8378  -0.8498  -0.6229   0.00    0.0    0.01027    0.00293   -0.00264   0.09572  0.13663  0.46716  0.02589  0.06713  0.04352
2021/09/23 14:05:56.000   13.727541488  100.775989260   -13.2013   5  11   1.8915   2.6473   8.2000   0.8375  -0.8494  -0.6232   0.00    0.0    0.02941   -0.01934   -0.05351   0.09572  0.13663  0.46720  0.02587  0.06721  0.04354
2021/09/23 14:05:57.000   13.727541587  100.775989562   -13.3995   5  11   1.8914   2.6472   8.2007   0.8372  -0.8490  -0.6236   0.00    0.0    0.01722   -0.01670   -0.04160   0.09572  0.13663  0.46725  0.02584  0.06728  0.04355
2021/09/23 14:05:58.000   13.727541401  100.775989660   -13.2785   5  11   1.8913   2.6471   8.2015   0.8368  -0.8486  -0.6239   0.00    0.0    0.00715    0.03039   -0.01337   0.09572  0.13663  0.46729  0.02582  0.06735  0.04356
2021/09/23 14:05:59.000   13.727540994  100.775989988   -13.4847   5  11   1.8912   2.6471   8.2023   0.8365  -0.8481  -0.6243   0.00    0.0    0.00221    0.01309   -0.05039   0.09571  0.13663  0.46734  0.02580  0.06742  0.04357
2021/09/23 14:06:00.000   13.727541065  100.775990205   -13.3593   5  11   1.8911   2.6470   8.2030   0.8362  -0.8477  -0.6246   0.00    0.0    0.00309   -0.03968   -0.03458   0.09571  0.13663  0.46738  0.02577  0.06750  0.04358
2021/09/23 14:06:01.000   13.727540794  100.775990824   -13.2084   5  11   1.8910   2.6469   8.2038   0.8358  -0.8473  -0.6250   0.00    0.0   -0.00515   -0.01779    0.01235   0.09571  0.13663  0.46742  0.02575  0.06757  0.04359
2021/09/23 14:06:02.000   13.727540810  100.775990775   -13.1812   5  11   1.8908   2.6468   8.2046   0.8355  -0.8469  -0.6253   0.00    0.0    0.01294    0.00072    0.04288   0.09571  0.13663  0.46747  0.02573  0.06764  0.04360
2021/09/23 14:06:03.000   13.727540758  100.775990950   -13.1633   5  11   1.8907   2.6467   8.2053   0.8351  -0.8465  -0.6257   0.00    0.0    0.02337    0.01557   -0.06091   0.09571  0.13663  0.46751  0.02571  0.06771  0.04362
2021/09/23 14:06:04.000   13.727540734  100.775990987   -13.2503   5  11   1.8906   2.6466   8.2061   0.8348  -0.8461  -0.6260   0.00    0.0    0.00660    0.03780   -0.03636   0.09570  0.13663  0.46756  0.02568  0.06778  0.04363
2021/09/23 14:06:05.000   13.727541065  100.775991300   -13.3819   5  11   1.8905   2.6465   8.2068   0.8345  -0.8456  -0.6264   0.00    0.0    0.00909   -0.02654   -0.06824   0.09570  0.13663  0.46760  0.02566  0.06786  0.04364
2021/09/23 14:06:06.000   13.727541251  100.775991500   -13.6219   5  11   1.8904   2.6464   8.2076   0.8341  -0.8452  -0.6267   0.00    0.0   -0.00408    0.02164   -0.05328   0.09570  0.13663  0.46764  0.02564  0.06793  0.04365
2021/09/23 14:06:07.000   13.727541556  100.775991271   -13.9433   5  11   1.8902   2.6463   8.2084   0.8338  -0.8448  -0.6271   0.00    0.0    0.00325    0.00062    0.03746   0.09570  0.13663  0.46769  0.02561  0.06800  0.04366
2021/09/23 14:06:08.000   13.727541536  100.775991512   -14.1031   5  11   1.8901   2.6462   8.2091   0.8335  -0.8444  -0.6274   0.00    0.0   -0.01113   -0.00574   -0.02887   0.09570  0.13663  0.46773  0.02559  0.06807  0.04367
2021/09/23 14:06:09.000   13.727541292  100.775992523   -13.7507   5  11   1.8900   2.6461   8.2099   0.8331  -0.8440  -0.6278   0.00    0.0   -0.00371    0.03650   -0.02069   0.09569  0.13663  0.46777  0.02557  0.06814  0.04368
2021/09/23 14:06:10.000   13.727541568  100.775992351   -14.0579   5  11   1.8899   2.6460   8.2106   0.8328  -0.8436  -0.6281   0.00    0.0   -0.00444    0.01811    0.04523   0.09569  0.13663  0.46781  0.02554  0.06821  0.04369
2021/09/23 14:06:11.000   13.727541532  100.775991687   -14.1926   5  11   1.8898   2.6459   8.2114   0.8324  -0.8431  -0.6285   0.00    0.0   -0.01030    0.01862    0.06367   0.09569  0.13663  0.46786  0.02552  0.06829  0.04370
2021/09/23 14:06:12.000   13.727541801  100.775991266   -14.0104   5  11   1.8897   2.6459   8.2121   0.8321  -0.8427  -0.6288   0.00    0.0    0.00441   -0.01760   -0.00025   0.09569  0.13663  0.46790  0.02550  0.06836  0.04372
2021/09/23 14:06:13.000   13.727541377  100.775990995   -14.1092   5  11   1.8895   2.6458   8.2129   0.8318  -0.8423  -0.6291   0.00    0.0    0.00831    0.00063    0.01151   0.09569  0.13663  0.46794  0.02547  0.06843  0.04373
2021/09/23 14:06:14.000   13.727541889  100.775990998   -14.2442   5  11   1.8894   2.6457   8.2136   0.8314  -0.8419  -0.6295   0.00    0.0   -0.00648   -0.00631   -0.12281   0.09569  0.13663  0.46798  0.02545  0.06850  0.04374
2021/09/23 14:06:15.000   13.727542080  100.775990502   -14.3507   5  11   1.8893   2.6456   8.2143   0.8311  -0.8415  -0.6298   0.00    0.0    0.00472    0.01238   -0.04869   0.09568  0.13663  0.46803  0.02543  0.06857  0.04375
2021/09/23 14:06:16.000   13.727542580  100.775989856   -14.7180   5  11   1.8892   2.6455   8.2151   0.8307  -0.8410  -0.6302   0.00    0.0    0.00869    0.00421   -0.03675   0.09568  0.13663  0.46807  0.02540  0.06864  0.04376
2021/09/23 14:06:17.000   13.727542511  100.775989864   -14.6199   5  11   1.8891   2.6454   8.2158   0.8304  -0.8406  -0.6305   0.00    0.0   -0.00515    0.05199   -0.00059   0.09568  0.13663  0.46811  0.02538  0.06871  0.04377
2021/09/23 14:06:18.000   13.727542288  100.775990254   -14.6001   5  11   1.8890   2.6453   8.2166   0.8301  -0.8402  -0.6309   0.00    0.0   -0.01373    0.00593    0.00038   0.09568  0.13663  0.46815  0.02536  0.06878  0.04378
2021/09/23 14:06:19.000   13.727542582  100.775990149   -14.6675   5  11   1.8888   2.6452   8.2173   0.8297  -0.8398  -0.6313   0.00    0.0   -0.01444    0.02059    0.02086   0.09568  0.13663  0.46819  0.02533  0.06885  0.04379
2021/09/23 14:06:20.000   13.727542529  100.775989720   -14.7169   5  11   1.8887   2.6451   8.2180   0.8294  -0.8393  -0.6316   0.00    0.0   -0.00019   -0.04430    0.03256   0.09567  0.13663  0.46823  0.02531  0.06893  0.04380
2021/09/23 14:06:21.000   13.727542794  100.775990077   -14.8224   5  11   1.8886   2.6450   8.2188   0.8290  -0.8389  -0.6320   0.00    0.0   -0.01034   -0.01134   -0.00965   0.09567  0.13663  0.46828  0.02529  0.06900  0.04381
2021/09/23 14:06:22.000   13.727542555  100.775990059   -14.8991   5  11   1.8885   2.6449   8.2195   0.8287  -0.8385  -0.6323   0.00    0.0    0.02222    0.00803    0.05431   0.09567  0.13663  0.46832  0.02526  0.06907  0.04382
2021/09/23 14:06:23.000   13.727542678  100.775990436   -14.8830   5  11   1.8884   2.6448   8.2202   0.8284  -0.8381  -0.6327   0.00    0.0    0.01447    0.00013    0.03961   0.09567  0.13663  0.46836  0.02524  0.06914  0.04383
2021/09/23 14:06:24.000   13.727542390  100.775989674   -14.5613   5  11   1.8883   2.6448   8.2210   0.8280  -0.8376  -0.6330   0.00    0.0    0.00386   -0.01336    0.01794   0.09567  0.13664  0.46840  0.02522  0.06921  0.04384
2021/09/23 14:06:25.000   13.727542124  100.775989222   -14.4391   5  11   1.8882   2.6447   8.2217   0.8277  -0.8372  -0.6334   0.00    0.0    0.00522   -0.01291    0.00614   0.09566  0.13664  0.46844  0.02519  0.06928  0.04385
2021/09/23 14:06:26.000   13.727541855  100.775989163   -14.3778   5  11   1.8880   2.6446   8.2224   0.8273  -0.8368  -0.6337   0.00    0.0    0.00225    0.01287   -0.01185   0.09566  0.13664  0.46848  0.02517  0.06935  0.04386
2021/09/23 14:06:27.000   13.727541133  100.775988722   -14.0773   5  12   1.8879   2.6445   8.2231   0.8270  -0.8363  -0.6341   0.00    0.0    0.01051   -0.00158   -0.03950   0.09510  0.13592  0.41352  0.02786  0.08881 -0.01866
2021/09/23 14:06:28.000   13.727541293  100.775989454   -14.2118   5  12   1.8878   2.6444   8.2239   0.8267  -0.8359  -0.6344   0.00    0.0    0.00002    0.00981   -0.02149   0.09510  0.13592  0.41353  0.02783  0.08886 -0.01862
2021/09/23 14:06:29.000   13.727541343  100.775988813   -13.9919   5  12   1.8877   2.6443   8.2246   0.8263  -0.8355  -0.6348   0.00    0.0   -0.01933    0.03302    0.07526   0.09510  0.13593  0.41354  0.02781  0.08891 -0.01859
2021/09/23 14:06:30.000   13.727541373  100.775988398   -13.7903   5  12   1.8876   2.6442   8.2253   0.8260  -0.8351  -0.6351   0.00    0.0   -0.00604   -0.00085    0.03773   0.09510  0.13593  0.41355  0.02779  0.08896 -0.01855
2021/09/23 14:06:31.000   13.727541040  100.775987964   -13.5908   5  12   1.8875   2.6441   8.2260   0.8256  -0.8346  -0.6355   0.00    0.0   -0.00250   -0.02443   -0.06658   0.09510  0.13593  0.41356  0.02776  0.08902 -0.01851
2021/09/23 14:06:32.000   13.727541635  100.775987633   -13.3123   5  12   1.8873   2.6440   8.2267   0.8253  -0.8342  -0.6358   0.00    0.0    0.00117    0.01572    0.01484   0.09510  0.13593  0.41357  0.02774  0.08907 -0.01848
2021/09/23 14:06:33.000   13.727541786  100.775987495   -12.9806   5  12   1.8872   2.6439   8.2275   0.8250  -0.8338  -0.6362   0.00    0.0    0.00492    0.00981   -0.08454   0.09509  0.13593  0.41358  0.02771  0.08912 -0.01844
2021/09/23 14:06:34.000   13.727541652  100.775987198   -13.0853   5  12   1.8871   2.6438   8.2282   0.8246  -0.8333  -0.6365   0.00    0.0   -0.00236   -0.00902    0.04070   0.09509  0.13593  0.41359  0.02769  0.08917 -0.01840
2021/09/23 14:06:35.000   13.727540917  100.775987225   -13.0596   5  12   1.8870   2.6438   8.2289   0.8243  -0.8329  -0.6369   0.00    0.0    0.00020    0.00457    0.06199   0.09509  0.13593  0.41360  0.02767  0.08923 -0.01837
2021/09/23 14:06:36.000   13.727541356  100.775986887   -13.1828   5  12   1.8869   2.6437   8.2296   0.8239  -0.8325  -0.6372   0.00    0.0    0.00520   -0.01533   -0.06213   0.09509  0.13593  0.41361  0.02764  0.08928 -0.01833
2021/09/23 14:06:37.000   13.727541092  100.775987149   -13.0370   5  12   1.8868   2.6436   8.2303   0.8236  -0.8320  -0.6376   0.00    0.0   -0.01349    0.01763    0.03845   0.09509  0.13593  0.41361  0.02762  0.08933 -0.01829
2021/09/23 14:06:38.000   13.727541152  100.775987050   -13.0624   5  12   1.8866   2.6435   8.2310   0.8233  -0.8316  -0.6379   0.00    0.0    0.01981    0.01056    0.01081   0.09509  0.13593  0.41362  0.02759  0.08938 -0.01826
2021/09/23 14:06:39.000   13.727541112  100.775986358   -12.9159   5  12   1.8865   2.6434   8.2317   0.8229  -0.8312  -0.6383   0.00    0.0    0.00079   -0.02547   -0.06926   0.09509  0.13593  0.41363  0.02757  0.08944 -0.01822
2021/09/23 14:06:40.000   13.727541284  100.775986458   -12.7751   5  12   1.8864   2.6433   8.2324   0.8226  -0.8307  -0.6386   0.00    0.0   -0.00056    0.01646   -0.00784   0.09509  0.13594  0.41364  0.02755  0.08949 -0.01818
2021/09/23 14:06:41.000   13.727541390  100.775986590   -12.6027   5  12   1.8863   2.6432   8.2331   0.8222  -0.8303  -0.6390   0.00    0.0   -0.00865    0.01546   -0.00759   0.09508  0.13594  0.41365  0.02752  0.08954 -0.01815
2021/09/23 14:06:42.000   13.727540966  100.775986404   -12.4175   5  12   1.8862   2.6431   8.2338   0.8219  -0.8298  -0.6393   0.00    0.0   -0.00548    0.00584    0.01484   0.09508  0.13594  0.41366  0.02750  0.08959 -0.01811
2021/09/23 14:06:43.000   13.727541222  100.775986355   -12.6024   5  12   1.8861   2.6430   8.2345   0.8216  -0.8294  -0.6397   0.00    0.0    0.02331    0.02362    0.02352   0.09508  0.13594  0.41366  0.02747  0.08964 -0.01807
2021/09/23 14:06:44.000   13.727541329  100.775986089   -12.6126   5  12   1.8860   2.6429   8.2352   0.8212  -0.8290  -0.6400   0.00    0.0    0.00295    0.01958   -0.05317   0.09508  0.13594  0.41367  0.02745  0.08970 -0.01804
2021/09/23 14:06:45.000   13.727540915  100.775985778   -12.3860   5  12   1.8858   2.6428   8.2359   0.8209  -0.8285  -0.6404   0.00    0.0    0.01226    0.02111   -0.02569   0.09508  0.13594  0.41368  0.02743  0.08975 -0.01800
2021/09/23 14:06:46.000   13.727541326  100.775986291   -12.5322   5  12   1.8857   2.6428   8.2366   0.8205  -0.8281  -0.6407   0.00    0.0   -0.00486   -0.00004   -0.00013   0.09508  0.13594  0.41369  0.02740  0.08980 -0.01796
2021/09/23 14:06:47.000   13.727541474  100.775986186   -12.4715   5  12   1.8856   2.6427   8.2373   0.8202  -0.8277  -0.6411   0.00    0.0   -0.00340    0.01447    0.07205   0.09508  0.13594  0.41370  0.02738  0.08985 -0.01793
2021/09/23 14:06:48.000   13.727541672  100.775986144   -12.3610   5  12   1.8855   2.6426   8.2380   0.8198  -0.8272  -0.6414   0.00    0.0    0.01161    0.00385    0.02369   0.09507  0.13594  0.41370  0.02735  0.08990 -0.01789
2021/09/23 14:06:49.000   13.727541542  100.775986268   -12.2122   5  12   1.8854   2.6425   8.2387   0.8195  -0.8268  -0.6418   0.00    0.0   -0.00227   -0.00063    0.02412   0.09507  0.13594  0.41371  0.02733  0.08996 -0.01785
2021/09/23 14:06:50.000   13.727541899  100.775985640   -12.1737   5  12   1.8853   2.6424   8.2394   0.8192  -0.8263  -0.6421   0.00    0.0    0.00916   -0.01490   -0.11537   0.09507  0.13594  0.41372  0.02731  0.09001 -0.01781
2021/09/23 14:06:51.000   13.727541070  100.775985982   -12.2831   5  12   1.8852   2.6423   8.2401   0.8188  -0.8259  -0.6425   0.00    0.0   -0.00625    0.00480   -0.03647   0.09507  0.13595  0.41373  0.02728  0.09006 -0.01778
2021/09/23 14:06:52.000   13.727541132  100.775985629   -12.1111   5  12   1.8850   2.6422   8.2407   0.8185  -0.8254  -0.6428   0.00    0.0    0.00137   -0.00099    0.07873   0.09507  0.13595  0.41373  0.02726  0.09011 -0.01774
2021/09/23 14:06:53.000   13.727540964  100.775985628   -12.0148   5  12   1.8849   2.6421   8.2414   0.8181  -0.8250  -0.6432   0.00    0.0   -0.01539    0.00905    0.00076   0.09507  0.13595  0.41374  0.02723  0.09016 -0.01770
2021/09/23 14:06:54.000   13.727540953  100.775986359   -12.4245   5  12   1.8848   2.6420   8.2421   0.8178  -0.8246  -0.6435   0.00    0.0   -0.00143    0.02611    0.03743   0.09507  0.13595  0.41375  0.02721  0.09021 -0.01767
2021/09/23 14:06:55.000   13.727541291  100.775986153   -12.3292   5  12   1.8847   2.6419   8.2428   0.8174  -0.8241  -0.6439   0.00    0.0   -0.00780   -0.00806    0.05238   0.09507  0.13595  0.41376  0.02718  0.09026 -0.01763
2021/09/23 14:06:56.000   13.727541821  100.775986120   -12.2540   5  12   1.8846   2.6419   8.2435   0.8171  -0.8237  -0.6443   0.00    0.0    0.02515    0.00943    0.02742   0.09506  0.13595  0.41376  0.02716  0.09032 -0.01759
2021/09/23 14:06:57.000   13.727541499  100.775985955   -12.4121   5  12   1.8845   2.6418   8.2441   0.8168  -0.8232  -0.6446   0.00    0.0    0.00603    0.01014   -0.00166   0.09506  0.13595  0.41377  0.02714  0.09037 -0.01755
2021/09/23 14:06:58.000   13.727541762  100.775985350   -12.3225   5  12   1.8844   2.6417   8.2448   0.8164  -0.8228  -0.6450   0.00    0.0    0.01933    0.01901    0.02347   0.09506  0.13595  0.41378  0.02711  0.09042 -0.01752
2021/09/23 14:06:59.000   13.727541283  100.775985035   -12.4693   5  12   1.8842   2.6416   8.2455   0.8161  -0.8223  -0.6453   0.00    0.0    0.00041   -0.00517   -0.00293   0.09506  0.13595  0.41378  0.02709  0.09047 -0.01748
2021/09/23 14:07:00.000   13.727541346  100.775985249   -12.7412   5  12   1.8841   2.6415   8.2462   0.8157  -0.8219  -0.6457   0.00    0.0    0.00672    0.01558   -0.00722   0.09506  0.13595  0.41379  0.02706  0.09052 -0.01744
2021/09/23 14:07:01.000   13.727541203  100.775985775   -13.0013   5  12   1.8840   2.6414   8.2468   0.8154  -0.8214  -0.6460   0.00    0.0    0.01162   -0.01352   -0.01767   0.09506  0.13596  0.41380  0.02704  0.09057 -0.01740
2021/09/23 14:07:02.000   13.727541005  100.775985804   -12.8928   5  12   1.8839   2.6413   8.2475   0.8150  -0.8210  -0.6464   0.00    0.0    0.01551    0.01357   -0.05145   0.09506  0.13596  0.41380  0.02701  0.09062 -0.01737
2021/09/23 14:07:03.000   13.727541104  100.775985072   -12.9467   5  12   1.8838   2.6412   8.2482   0.8147  -0.8205  -0.6467   0.00    0.0   -0.00158    0.00822    0.01537   0.09506  0.13596  0.41381  0.02699  0.09067 -0.01733
2021/09/23 14:07:04.000   13.727541127  100.775984765   -13.0506   5  12   1.8837   2.6411   8.2488   0.8143  -0.8201  -0.6471   0.00    0.0   -0.00089   -0.00640   -0.01397   0.09505  0.13596  0.41382  0.02696  0.09073 -0.01729
2021/09/23 14:07:05.000   13.727541262  100.775985510   -12.9822   5  12   1.8836   2.6411   8.2495   0.8140  -0.8196  -0.6474   0.00    0.0    0.00336    0.00210   -0.09853   0.09505  0.13596  0.41382  0.02694  0.09078 -0.01725
2021/09/23 14:07:06.000   13.727541395  100.775985681   -13.2099   5  12   1.8835   2.6410   8.2502   0.8137  -0.8192  -0.6478   0.00    0.0    0.02136    0.00165   -0.00212   0.09505  0.13596  0.41383  0.02692  0.09083 -0.01722
2021/09/23 14:07:07.000   13.727541132  100.775985601   -12.9611   5  12   1.8833   2.6409   8.2508   0.8133  -0.8187  -0.6481   0.00    0.0    0.00337    0.03495    0.00794   0.09505  0.13596  0.41384  0.02689  0.09088 -0.01718
2021/09/23 14:07:08.000   13.727541158  100.775985866   -13.0500   5  12   1.8832   2.6408   8.2515   0.8130  -0.8183  -0.6485   0.00    0.0    0.00828    0.02912   -0.03697   0.09505  0.13596  0.41384  0.02687  0.09093 -0.01714
2021/09/23 14:07:09.000   13.727541220  100.775985534   -13.1255   5  12   1.8831   2.6407   8.2521   0.8126  -0.8178  -0.6488   0.00    0.0   -0.00766   -0.03658   -0.00393   0.09505  0.13596  0.41385  0.02684  0.09098 -0.01710
2021/09/23 14:07:10.000   13.727541291  100.775985479   -13.1907   5  12   1.8830   2.6406   8.2528   0.8123  -0.8174  -0.6492   0.00    0.0    0.03349    0.02095    0.01593   0.09505  0.13596  0.41385  0.02682  0.09103 -0.01707
2021/09/23 14:07:11.000   13.727541456  100.775985477   -13.3300   5  12   1.8829   2.6405   8.2534   0.8119  -0.8169  -0.6496   0.00    0.0   -0.02169    0.01983    0.02848   0.09505  0.13597  0.41386  0.02679  0.09108 -0.01703
2021/09/23 14:07:12.000   13.727541324  100.775985673   -13.4553   5  12   1.8828   2.6404   8.2541   0.8116  -0.8165  -0.6499   0.00    0.0    0.00330    0.02423   -0.01835   0.09504  0.13597  0.41387  0.02677  0.09113 -0.01699
2021/09/23 14:07:13.000   13.727541309  100.775986688   -13.8552   5  12   1.8827   2.6404   8.2547   0.8112  -0.8160  -0.6503   0.00    0.0   -0.00984   -0.00616   -0.00584   0.09504  0.13597  0.41387  0.02674  0.09118 -0.01695
2021/09/23 14:07:14.000   13.727540650  100.775986613   -13.6541   5  12   1.8825   2.6403   8.2554   0.8109  -0.8156  -0.6506   0.00    0.0    0.00848    0.01033   -0.00282   0.09504  0.13597  0.41388  0.02672  0.09123 -0.01691
2021/09/23 14:07:15.000   13.727540912  100.775987174   -13.9234   5  12   1.8824   2.6402   8.2560   0.8106  -0.8151  -0.6510   0.00    0.0    0.00171   -0.00852   -0.03125   0.09504  0.13597  0.41388  0.02669  0.09128 -0.01688
2021/09/23 14:07:16.000   13.727541826  100.775987415   -13.9808   5  12   1.8823   2.6401   8.2567   0.8102  -0.8147  -0.6513   0.00    0.0    0.00436   -0.01500   -0.05359   0.09504  0.13597  0.41389  0.02667  0.09133 -0.01684
2021/09/23 14:07:17.000   13.727542236  100.775987493   -13.8894   5  12   1.8822   2.6400   8.2573   0.8099  -0.8142  -0.6517   0.00    0.0   -0.01212    0.03171   -0.02567   0.09504  0.13597  0.41389  0.02664  0.09138 -0.01680
2021/09/23 14:07:18.000   13.727541652  100.775986742   -13.8977   5  12   1.8821   2.6399   8.2580   0.8095  -0.8137  -0.6520   0.00    0.0    0.01103    0.01786    0.10629   0.09504  0.13597  0.41390  0.02662  0.09143 -0.01676
2021/09/23 14:07:19.000   13.727541309  100.775986741   -14.0591   5  12   1.8820   2.6398   8.2586   0.8092  -0.8133  -0.6524   0.00    0.0   -0.00247    0.00099    0.00148   0.09504  0.13597  0.41390  0.02659  0.09148 -0.01672
2021/09/23 14:07:20.000   13.727541285  100.775986306   -14.0487   5  12   1.8819   2.6397   8.2592   0.8088  -0.8128  -0.6527   0.00    0.0    0.00071    0.00740    0.04869   0.09503  0.13598  0.41391  0.02657  0.09153 -0.01669
2021/09/23 14:07:21.000   13.727541180  100.775985703   -14.0915   5  12   1.8818   2.6396   8.2599   0.8085  -0.8124  -0.6531   0.00    0.0   -0.00108    0.03423   -0.04928   0.09503  0.13598  0.41391  0.02654  0.09158 -0.01665
2021/09/23 14:07:22.000   13.727541298  100.775985994   -14.0137   5  12   1.8816   2.6396   8.2605   0.8081  -0.8119  -0.6534   0.00    0.0    0.00110   -0.00527   -0.08187   0.09503  0.13598  0.41392  0.02652  0.09163 -0.01661
2021/09/23 14:07:23.000   13.727540871  100.775986135   -14.0840   5  12   1.8815   2.6395   8.2612   0.8078  -0.8114  -0.6538   0.00    0.0    0.00867    0.01620    0.04214   0.09503  0.13598  0.41392  0.02649  0.09168 -0.01657
2021/09/23 14:07:24.000   13.727541000  100.775986050   -13.9287   5  12   1.8814   2.6394   8.2618   0.8074  -0.8110  -0.6542   0.00    0.0   -0.00235   -0.00776    0.03384   0.09503  0.13598  0.41393  0.02647  0.09173 -0.01653
2021/09/23 14:07:25.000   13.727540623  100.775986609   -14.0591   5  12   1.8813   2.6393   8.2624   0.8071  -0.8105  -0.6545   0.00    0.0   -0.00069    0.00917    0.02500   0.09503  0.13598  0.41393  0.02644  0.09178 -0.01650
2021/09/23 14:07:26.000   13.727540642  100.775985694   -13.7754   5  12   1.8812   2.6392   8.2630   0.8067  -0.8101  -0.6549   0.00    0.0    0.00589    0.02063    0.05249   0.09503  0.13598  0.41394  0.02642  0.09183 -0.01646
2021/09/23 14:07:27.000   13.727541007  100.775985958   -13.9294   5  12   1.8811   2.6391   8.2637   0.8064  -0.8096  -0.6552   0.00    0.0    0.00745   -0.03649    0.01359   0.09502  0.13598  0.41394  0.02639  0.09188 -0.01642
2021/09/23 14:07:28.000   13.727540023  100.775986305   -13.8062   5  12   1.8810   2.6390   8.2643   0.8061  -0.8091  -0.6556   0.00    0.0   -0.00837   -0.00939   -0.03700   0.09502  0.13598  0.41394  0.02637  0.09193 -0.01638
2021/09/23 14:07:29.000   13.727539847  100.775986284   -13.9469   5  12   1.8809   2.6389   8.2649   0.8057  -0.8087  -0.6559   0.00    0.0    0.00064   -0.00197   -0.03850   0.09502  0.13599  0.41395  0.02634  0.09198 -0.01634
2021/09/23 14:07:30.000   13.727539718  100.775986371   -13.9888   5  12   1.8808   2.6389   8.2655   0.8054  -0.8082  -0.6563   0.00    0.0   -0.00167   -0.02315   -0.09192   0.09502  0.13599  0.41395  0.02632  0.09203 -0.01630
2021/09/23 14:07:31.000   13.727539522  100.775987234   -13.9323   5  12   1.8806   2.6388   8.2662   0.8050  -0.8077  -0.6566   0.00    0.0   -0.00216    0.00019   -0.03167   0.09502  0.13599  0.41396  0.02629  0.09208 -0.01627
2021/09/23 14:07:32.000   13.727538659  100.775987301   -14.0795   5  12   1.8805   2.6387   8.2668   0.8047  -0.8073  -0.6570   0.00    0.0    0.00536   -0.01702    0.00410   0.09502  0.13599  0.41396  0.02627  0.09213 -0.01623
2021/09/23 14:07:33.000   13.727538925  100.775988110   -13.7742   5  12   1.8804   2.6386   8.2674   0.8043  -0.8068  -0.6573   0.00    0.0    0.01229    0.00748    0.02999   0.09502  0.13599  0.41396  0.02624  0.09218 -0.01619
2021/09/23 14:07:34.000   13.727539566  100.775988462   -13.6701   5  12   1.8803   2.6385   8.2680   0.8040  -0.8063  -0.6577   0.00    0.0    0.01297    0.00327   -0.01290   0.09502  0.13599  0.41397  0.02622  0.09223 -0.01615
2021/09/23 14:07:35.000   13.727539870  100.775988129   -13.7588   5  12   1.8802   2.6384   8.2686   0.8036  -0.8059  -0.6581   0.00    0.0    0.02073    0.01122   -0.01846   0.09501  0.13599  0.41397  0.02619  0.09228 -0.01611
2021/09/23 14:07:36.000   13.727539841  100.775988907   -13.7930   5  12   1.8801   2.6383   8.2692   0.8033  -0.8054  -0.6584   0.00    0.0   -0.00940   -0.01888    0.04354   0.09501  0.13599  0.41397  0.02617  0.09233 -0.01607
2021/09/23 14:07:37.000   13.727539893  100.775989120   -13.5003   5  12   1.8800   2.6382   8.2698   0.8029  -0.8049  -0.6588   0.00    0.0   -0.00873    0.01817    0.00880   0.09501  0.13599  0.41398  0.02614  0.09238 -0.01603
2021/09/23 14:07:38.000   13.727539763  100.775989407   -13.3709   5  12   1.8799   2.6382   8.2705   0.8026  -0.8045  -0.6591   0.00    0.0    0.00520    0.01091    0.01446   0.09501  0.13600  0.41398  0.02612  0.09243 -0.01600
2021/09/23 14:07:39.000   13.727539192  100.775989479   -13.3301   5  12   1.8797   2.6381   8.2711   0.8022  -0.8040  -0.6595   0.00    0.0   -0.01123    0.01200    0.02190   0.09501  0.13600  0.41398  0.02609  0.09248 -0.01596
2021/09/23 14:07:40.000   13.727538986  100.775989576   -13.3502   5  12   1.8796   2.6380   8.2717   0.8019  -0.8035  -0.6598   0.00    0.0   -0.00524   -0.02325    0.06842   0.09501  0.13600  0.41399  0.02606  0.09253 -0.01592
2021/09/23 14:07:41.000   13.727538590  100.775990360   -13.3131   5  12   1.8795   2.6379   8.2723   0.8015  -0.8031  -0.6602   0.00    0.0   -0.00037   -0.02344    0.01180   0.09501  0.13600  0.41399  0.02604  0.09257 -0.01588
2021/09/23 14:07:42.000   13.727538447  100.775990690   -13.2667   5  12   1.8794   2.6378   8.2729   0.8012  -0.8026  -0.6605   0.00    0.0    0.00815   -0.00142    0.02437   0.09501  0.13600  0.41399  0.02601  0.09262 -0.01584
2021/09/23 14:07:43.000   13.727538229  100.775991291   -13.3792   5  12   1.8793   2.6377   8.2735   0.8008  -0.8021  -0.6609   0.00    0.0   -0.01320    0.02695    0.03512   0.09500  0.13600  0.41400  0.02599  0.09267 -0.01580
2021/09/23 14:07:44.000   13.727537907  100.775990929   -13.4886   5  12   1.8792   2.6376   8.2741   0.8005  -0.8016  -0.6613   0.00    0.0   -0.00244   -0.00583   -0.08294   0.09500  0.13600  0.41400  0.02596  0.09272 -0.01576
2021/09/23 14:07:45.000   13.727538270  100.775992192   -13.4639   5  12   1.8791   2.6376   8.2747   0.8001  -0.8012  -0.6616   0.00    0.0   -0.00508    0.00765   -0.03393   0.09500  0.13600  0.41400  0.02594  0.09277 -0.01572
2021/09/23 14:07:46.000   13.727538276  100.775991999   -13.3997   5  12   1.8790   2.6375   8.2753   0.7998  -0.8007  -0.6620   0.00    0.0    0.01110    0.01161   -0.01610   0.09500  0.13600  0.41401  0.02591  0.09282 -0.01568
2021/09/23 14:07:47.000   13.727537870  100.775992742   -13.5497   5  12   1.8789   2.6374   8.2759   0.7994  -0.8002  -0.6623   0.00    0.0    0.00695    0.01835   -0.00178   0.09500  0.13601  0.41401  0.02589  0.09287 -0.01565
2021/09/23 14:07:48.000   13.727537399  100.775992750   -13.6824   5  12   1.8788   2.6373   8.2764   0.7991  -0.7997  -0.6627   0.00    0.0    0.00113   -0.00367   -0.03961   0.09500  0.13601  0.41401  0.02586  0.09292 -0.01561
2021/09/23 14:07:49.000   13.727537145  100.775992296   -13.8100   5  12   1.8786   2.6372   8.2770   0.7987  -0.7993  -0.6630   0.00    0.0    0.02308    0.00701   -0.01980   0.09500  0.13601  0.41401  0.02583  0.09297 -0.01557
2021/09/23 14:07:50.000   13.727536734  100.775993131   -14.0983   5  12   1.8785   2.6371   8.2776   0.7984  -0.7988  -0.6634   0.00    0.0   -0.02207   -0.00612    0.02508   0.09500  0.13601  0.41401  0.02581  0.09301 -0.01553
2021/09/23 14:07:51.000   13.727536927  100.775994097   -14.1910   5  12   1.8784   2.6370   8.2782   0.7980  -0.7983  -0.6637   0.00    0.0   -0.00741    0.00585   -0.02859   0.09499  0.13601  0.41402  0.02578  0.09306 -0.01549
2021/09/23 14:07:52.000   13.727537202  100.775993832   -14.2381   5  12   1.8783   2.6370   8.2788   0.7977  -0.7978  -0.6641   0.00    0.0    0.00093   -0.01442   -0.03445   0.09499  0.13601  0.41402  0.02576  0.09311 -0.01545
2021/09/23 14:07:53.000   13.727537311  100.775993501   -14.0730   5  12   1.8782   2.6369   8.2794   0.7973  -0.7973  -0.6645   0.00    0.0   -0.01908    0.01077    0.08955   0.09499  0.13601  0.41402  0.02573  0.09316 -0.01541
2021/09/23 14:07:54.000   13.727537611  100.775993608   -14.3233   5  12   1.8781   2.6368   8.2800   0.7970  -0.7969  -0.6648   0.00    0.0    0.01528    0.00684    0.00836   0.09499  0.13601  0.41402  0.02571  0.09321 -0.01537
2021/09/23 14:07:55.000   13.727536930  100.775993588   -14.4330   5  12   1.8780   2.6367   8.2805   0.7966  -0.7964  -0.6652   0.00    0.0   -0.00429    0.01572    0.01213   0.09499  0.13602  0.41403  0.02568  0.09326 -0.01533
2021/09/23 14:07:56.000   13.727536997  100.775993599   -14.0994   5  12   1.8779   2.6366   8.2811   0.7963  -0.7959  -0.6655   0.00    0.0    0.01575    0.01164   -0.01468   0.09499  0.13602  0.41403  0.02565  0.09330 -0.01529
2021/09/23 14:07:57.000   13.727537251  100.775993115   -14.3738   5  12   1.8778   2.6365   8.2817   0.7959  -0.7954  -0.6659   0.00    0.0    0.01919   -0.00816   -0.01264   0.09499  0.13602  0.41403  0.02563  0.09335 -0.01525
2021/09/23 14:07:58.000   13.727537463  100.775993098   -14.3710   5  12   1.8777   2.6364   8.2823   0.7956  -0.7949  -0.6662   0.00    0.0    0.02320   -0.00168    0.00158   0.09499  0.13602  0.41403  0.02560  0.09340 -0.01521
2021/09/23 14:07:59.000   13.727538115  100.775992819   -14.5146   5  12   1.8775   2.6364   8.2828   0.7952  -0.7945  -0.6666   0.00    0.0   -0.00115    0.00544   -0.00421   0.09498  0.13602  0.41403  0.02558  0.09345 -0.01517
2021/09/23 14:08:00.000   13.727537878  100.775992530   -14.5083   5  12   1.8774   2.6363   8.2834   0.7949  -0.7940  -0.6669   0.00    0.0   -0.00505   -0.00869    0.02630   0.09498  0.13602  0.41403  0.02555  0.09350 -0.01513
2021/09/23 14:08:01.000   13.727538328  100.775992544   -14.6601   5  12   1.8773   2.6362   8.2840   0.7945  -0.7935  -0.6673   0.00    0.0   -0.02137   -0.01080    0.01507   0.09498  0.13602  0.41403  0.02552  0.09355 -0.01509
2021/09/23 14:08:02.000   13.727538765  100.775992361   -14.7647   5  12   1.8772   2.6361   8.2845   0.7942  -0.7930  -0.6677   0.00    0.0    0.00096   -0.00134   -0.03198   0.09498  0.13602  0.41404  0.02550  0.09359 -0.01506
2021/09/23 14:08:03.000   13.727539361  100.775992869   -14.4395   5  12   1.8771   2.6360   8.2851   0.7938  -0.7925  -0.6680   0.00    0.0    0.00360   -0.03518   -0.02357   0.09498  0.13603  0.41404  0.02547  0.09364 -0.01502
2021/09/23 14:08:04.000   13.727538891  100.775992293   -14.5613   5  12   1.8770   2.6359   8.2857   0.7935  -0.7920  -0.6684   0.00    0.0   -0.00734   -0.01236    0.06219   0.09498  0.13603  0.41404  0.02545  0.09369 -0.01498
2021/09/23 14:08:05.000   13.727539428  100.775992478   -14.6108   5  12   1.8769   2.6358   8.2862   0.7931  -0.7915  -0.6687   0.00    0.0   -0.00800    0.01936   -0.00748   0.09498  0.13603  0.41404  0.02542  0.09374 -0.01494
2021/09/23 14:08:06.000   13.727539775  100.775992565   -14.6834   5  12   1.8768   2.6358   8.2868   0.7928  -0.7910  -0.6691   0.00    0.0   -0.00841    0.00710   -0.01300   0.09498  0.13603  0.41404  0.02539  0.09379 -0.01490
2021/09/23 14:08:07.000   13.727539606  100.775992923   -14.5224   5  12   1.8767   2.6357   8.2873   0.7924  -0.7906  -0.6694   0.00    0.0   -0.00328    0.00997   -0.04238   0.09497  0.13603  0.41404  0.02537  0.09383 -0.01486
2021/09/23 14:08:08.000   13.727539856  100.775993477   -13.9584   5  12   1.8766   2.6356   8.2879   0.7921  -0.7901  -0.6698   0.00    0.0    0.00719    0.00918    0.01106   0.09497  0.13603  0.41404  0.02534  0.09388 -0.01482
2021/09/23 14:08:09.000   13.727539614  100.775993595   -13.7957   5  12   1.8764   2.6355   8.2885   0.7917  -0.7896  -0.6702   0.00    0.0    0.01185    0.03121   -0.03175   0.09497  0.13603  0.41404  0.02532  0.09393 -0.01478
2021/09/23 14:08:10.000   13.727539549  100.775993270   -13.7913   5  12   1.8763   2.6354   8.2890   0.7914  -0.7891  -0.6705   0.00    0.0    0.02695    0.02172   -0.00040   0.09497  0.13603  0.41404  0.02529  0.09398 -0.01474
2021/09/23 14:08:11.000   13.727539370  100.775992995   -13.7905   5  12   1.8762   2.6353   8.2896   0.7910  -0.7886  -0.6709   0.00    0.0   -0.00843   -0.00143    0.03884   0.09497  0.13604  0.41404  0.02526  0.09402 -0.01470
2021/09/23 14:08:12.000   13.727539453  100.775992934   -13.7584   5  12   1.8761   2.6352   8.2901   0.7907  -0.7881  -0.6712   0.00    0.0    0.00861   -0.00508   -0.02253   0.09497  0.13604  0.41404  0.02524  0.09407 -0.01466
2021/09/23 14:08:13.000   13.727539278  100.775993550   -13.8117   5  12   1.8760   2.6352   8.2907   0.7903  -0.7876  -0.6716   0.00    0.0   -0.02871    0.00554   -0.01640   0.09497  0.13604  0.41404  0.02521  0.09412 -0.01462
2021/09/23 14:08:14.000   13.727539709  100.775993550   -14.0741   5  12   1.8759   2.6351   8.2912   0.7900  -0.7871  -0.6719   0.00    0.0    0.00297    0.02352    0.00704   0.09497  0.13604  0.41404  0.02518  0.09417 -0.01458
2021/09/23 14:08:15.000   13.727539423  100.775993143   -13.9855   5  12   1.8758   2.6350   8.2917   0.7896  -0.7866  -0.6723   0.00    0.0    0.00610   -0.01016   -0.07843   0.09496  0.13604  0.41404  0.02516  0.09421 -0.01454
2021/09/23 14:08:16.000   13.727539947  100.775993304   -14.2853   5  12   1.8757   2.6349   8.2923   0.7893  -0.7861  -0.6727   0.00    0.0   -0.00384   -0.02266   -0.02961   0.09496  0.13604  0.41404  0.02513  0.09426 -0.01450
2021/09/23 14:08:17.000   13.727539756  100.775993170   -14.6057   5  12   1.8756   2.6348   8.2928   0.7889  -0.7856  -0.6730   0.00    0.0    0.00316   -0.00894   -0.01542   0.09496  0.13604  0.41404  0.02511  0.09431 -0.01446
2021/09/23 14:08:18.000   13.727539820  100.775993264   -14.5550   5  12   1.8755   2.6347   8.2934   0.7885  -0.7851  -0.6734   0.00    0.0    0.01408    0.00801   -0.07024   0.09496  0.13604  0.41404  0.02508  0.09436 -0.01441
2021/09/23 14:08:19.000   13.727540447  100.775992961   -14.6315   5  12   1.8754   2.6347   8.2939   0.7882  -0.7846  -0.6737   0.00    0.0   -0.00089    0.02099   -0.00545   0.09496  0.13605  0.41404  0.02505  0.09440 -0.01437
2021/09/23 14:08:20.000   13.727540569  100.775992868   -14.8962   5  12   1.8753   2.6346   8.2944   0.7878  -0.7841  -0.6741   0.00    0.0    0.01001   -0.00276   -0.02914   0.09496  0.13605  0.41404  0.02503  0.09445 -0.01433
2021/09/23 14:08:21.000   13.727540634  100.775993061   -15.1668   5  12   1.8751   2.6345   8.2950   0.7875  -0.7836  -0.6744   0.00    0.0   -0.00246    0.00646    0.00346   0.09496  0.13605  0.41404  0.02500  0.09450 -0.01429
2021/09/23 14:08:22.000   13.727541196  100.775993483   -15.1831   5  12   1.8750   2.6344   8.2955   0.7871  -0.7831  -0.6748   0.00    0.0   -0.01958   -0.00181    0.01175   0.09496  0.13605  0.41404  0.02497  0.09454 -0.01425
2021/09/23 14:08:23.000   13.727540648  100.775992781   -15.1505   5  12   1.8749   2.6343   8.2960   0.7868  -0.7826  -0.6752   0.00    0.0   -0.00086   -0.00529   -0.04073   0.09495  0.13605  0.41404  0.02495  0.09459 -0.01421
2021/09/23 14:08:24.000   13.727540853  100.775992270   -15.1674   5  12   1.8748   2.6342   8.2966   0.7864  -0.7821  -0.6755   0.00    0.0   -0.00327   -0.01181   -0.00388   0.09495  0.13605  0.41404  0.02492  0.09464 -0.01417
2021/09/23 14:08:25.000   13.727540993  100.775991680   -14.9461   5  12   1.8747   2.6342   8.2971   0.7861  -0.7816  -0.6759   0.00    0.0    0.02077    0.00559   -0.00938   0.09495  0.13605  0.41404  0.02489  0.09468 -0.01413
2021/09/23 14:08:26.000   13.727540892  100.775992306   -15.1120   5  12   1.8746   2.6341   8.2976   0.7857  -0.7811  -0.6762   0.00    0.0    0.00499   -0.00313    0.01945   0.09495  0.13606  0.41404  0.02487  0.09473 -0.01409
2021/09/23 14:08:27.000   13.727541131  100.775992691   -15.1224   5  12   1.8745   2.6340   8.2981   0.7854  -0.7806  -0.6766   0.00    0.0   -0.03064    0.01827    0.05011   0.09495  0.13606  0.41404  0.02484  0.09478 -0.01405
2021/09/23 14:08:28.000   13.727541027  100.775992205   -15.1520   5  12   1.8744   2.6339   8.2986   0.7850  -0.7801  -0.6769   0.00    0.0    0.00156   -0.00479    0.01869   0.09495  0.13606  0.41404  0.02481  0.09482 -0.01401
2021/09/23 14:08:29.000   13.727540952  100.775992904   -14.8704   5  12   1.8743   2.6338   8.2992   0.7847  -0.7796  -0.6773   0.00    0.0    0.00062    0.01646    0.07102   0.09495  0.13606  0.41404  0.02479  0.09487 -0.01397
2021/09/23 14:08:30.000   13.727540805  100.775993468   -14.9798   5  12   1.8742   2.6337   8.2997   0.7843  -0.7791  -0.6776   0.00    0.0    0.01342    0.01830   -0.00309   0.09495  0.13606  0.41403  0.02476  0.09492 -0.01393
2021/09/23 14:08:31.000   13.727540938  100.775993853   -14.7934   5  12   1.8741   2.6337   8.3002   0.7839  -0.7786  -0.6780   0.00    0.0   -0.00497   -0.01310   -0.05539   0.09494  0.13606  0.41403  0.02473  0.09496 -0.01389
2021/09/23 14:08:32.000   13.727541068  100.775992947   -14.5844   5  12   1.8740   2.6336   8.3007   0.7836  -0.7781  -0.6784   0.00    0.0    0.00755   -0.01404   -0.02118   0.09494  0.13606  0.41403  0.02470  0.09501 -0.01384
2021/09/23 14:08:33.000   13.727541065  100.775992700   -14.5257   5  12   1.8738   2.6335   8.3012   0.7832  -0.7776  -0.6787   0.00    0.0   -0.01458   -0.00235    0.00329   0.09494  0.13607  0.41403  0.02468  0.09506 -0.01380
2021/09/23 14:08:34.000   13.727540967  100.775992663   -14.5278   5  12   1.8737   2.6334   8.3017   0.7829  -0.7771  -0.6791   0.00    0.0   -0.01093   -0.00499    0.00197   0.09494  0.13607  0.41403  0.02465  0.09510 -0.01376
2021/09/23 14:08:35.000   13.727541048  100.775992309   -14.4784   5  12   1.8736   2.6333   8.3022   0.7825  -0.7766  -0.6794   0.00    0.0    0.02288   -0.00879   -0.00579   0.09494  0.13607  0.41403  0.02462  0.09515 -0.01372
2021/09/23 14:08:36.000   13.727540803  100.775992704   -14.5112   5  12   1.8735   2.6332   8.3027   0.7822  -0.7761  -0.6798   0.00    0.0    0.01071   -0.00399    0.00386   0.09494  0.13607  0.41403  0.02460  0.09520 -0.01368
2021/09/23 14:08:37.000   13.727541188  100.775992147   -14.4444   5  12   1.8734   2.6332   8.3032   0.7818  -0.7756  -0.6801   0.00    0.0    0.00056    0.00089    0.00457   0.09494  0.13607  0.41402  0.02457  0.09524 -0.01364
2021/09/23 14:08:38.000   13.727541654  100.775993033   -14.9137   5  12   1.8733   2.6331   8.3038   0.7815  -0.7751  -0.6805   0.00    0.0   -0.00525   -0.00502   -0.05860   0.09494  0.13607  0.41402  0.02454  0.09529 -0.01360
2021/09/23 14:08:39.000   13.727541208  100.775992749   -14.8463   5  12   1.8732   2.6330   8.3043   0.7811  -0.7746  -0.6809   0.00    0.0   -0.00721    0.01969   -0.00509   0.09493  0.13607  0.41402  0.02452  0.09534 -0.01356
2021/09/23 14:08:40.000   13.727540539  100.775992658   -14.9484   5  12   1.8731   2.6329   8.3048   0.7807  -0.7740  -0.6812   0.00    0.0    0.01102   -0.00358    0.00329   0.09493  0.13607  0.41402  0.02449  0.09538 -0.01351
2021/09/23 14:08:41.000   13.727540637  100.775992561   -14.7594   5  12   1.8730   2.6328   8.3052   0.7804  -0.7735  -0.6816   0.00    0.0    0.01636    0.02456    0.00128   0.09493  0.13608  0.41401  0.02446  0.09543 -0.01347
2021/09/23 14:08:42.000   13.727540527  100.775992751   -14.3200   5  12   1.8729   2.6327   8.3057   0.7800  -0.7730  -0.6819   0.00    0.0   -0.01339    0.02477    0.03524   0.09493  0.13608  0.41401  0.02443  0.09547 -0.01343
